contentful_id,ext_id,name,type,address,lat,lon,status,atm_cash_in,work_on_weekend,full_day,working_time,weekdays,saturdays,phone,atm_branch_image
2cVLDTQ9LqvsjeRe473x05,1800,ATM GUBA RIM GUSAR OBA,ATM,"Qusar rayonu, Həzi Aslanov küçəsi (Oba market)",41.4283,48.42842,,False,,,,,,,
AtpTfY1i3dIGPMffJjwBd,248,ATM GUBA RIM GILAZI OBA,ATM,Xızı rayonu Xızı-Altıağac yolunda Giləzi (Oba market),40.85429,48.93536,,False,,,,,,,
3JFrIrCR9uMBnl9APAnOCd,565,ATM GUBA RIM GUBA OBA,ATM,Quba rayonu Mövlud Qonaq küçəsində (Oba market) (Quba mərkəzi xəstəxana yaxınlığı),41.35696,48.49478,,False,,,,,,,
2vkuTuMl5XjNNY2y8NyKIS,2873,ATM RIM XIR SUM BAXKHASH. BRAVO,ATM,"Bağça şəhər yaşayış kompleksi, Sumqayıt ş, 18 B Sulh St, Sunqayıt (Sumqayıt şəhəri ""Bağçaşəhər""də yerləşən Bravo mağazası)",40.57389,49.64231,,True,,,,,,,
1pPs1Q1DZGRRzLZv7ZKXbR,1785,ATM SBC RISH DEDE GORGUD ARAZ,ATM,"Bakı, Suraxanı rayonu, Dədə Qorqud qəsəbəsi (Araz Dədə Qorqud qəsəbəsi)",40.3879,50.0215,,False,,,,,,,
1sJ6U0sRPExB5uFQL7W1p6,361,ATM RIM YEV YEVLAX NEPTUN 2,ATM,ATM RIM YEV YEVLAX NEPTUN 2,40.61452,47.14787,,False,,,,,,,
45W2fQa2BXjdItjmId3Gr3,1769,ATM RIM OGUZ SHEKI BAZARSTORE 2,ATM,"Şəki şəhəri, Mikayl Müşfiq küçəsi (Bazarstore 2)",41.21459,47.13722,,False,,,,,,,
3pS6AwRrFnwyrCUbSXRnJN,2800,ATM RIM XIR SOLITON RASULZADE,ATM,"Bakı, Binəqədi rayonu, M.Ə.Rəsulzadə qəsəbəsi, Azadlıq 12 (Soliton)",40.43903980390977,49.84441356492325,online,True,,,,,,,
5PkF3nZaiWsmuvFFrFNosV,2819,ATM CNV BAZARSTORE AGA NEMATULLA,ATM,"Bakı, Nərimanov rayonu, Ağa Neymatulla k.48 (Bazarstore Ağa Neymatulla)",40.397614,49.877995,online,True,,,,,,,
2yCounYhwS7utsM0jlU9sr,2813,ATM SBC RISH BAZARSTORE SARAYEVO,ATM,"Bakı, Xətai rayonu, Sarayevo küçəsi 136 (Bazarstore Sarayevo)",40.38600640273258,49.96024024885681,online,True,,,,,,,
2eC8NyhWUqarAwXDfhKGN9,2808,ATM RIM GEN GANJA BRANCH-1,ATM,"Gəncə şəhəri, Azərbaycan bayrağı 49A (ABB Gəncə filialı)",40.67883374219593,46.36995483475747,online,True,,,,,,,
2v4R4QyM3DPnTo14H1BBSk,2809,ATM RIM GEN GANJA BRANCH-2,ATM,"Gəncə şəhəri, Azərbaycan bayrağı 49A (ABB Gəncə filialı)",40.67883374219593,46.36995483475747,,True,,,,,,,
3PKgBemob7E8NMVrbJmKes,2823,ATM RİM OGUZ İSMAYİLLİ TOPCU,ATM,"İsmayıllı rayonu, Topçu kəndi (Topçu supermarket)",40.879917,48.069028,,False,,,,,,,
ismPwtCHgv9ob7FaNNtjA,2833,ATM CNV TAMSTORE 20 YANVAR,ATM,"Bakı, Nəsimii rayonu, Moskva prospekti (Tamstore 20 yanvar)",40.406023,49.807291,online,True,,,,,,,
roNK7C84ncHICjvjYCAV6,2816,ATM CNV BRAVO BABEK REC,ATM,Bakı ş. Xətai r. N.Rəfiyev k. 29. (Bravo Babək),40.387791,49.873824,,True,,,,,,,
4XG20mMmzbylAScSosFYFA,2310,ATM CNV SHARIFZADE CR 24/7,ATM,"Bakı, Yasamal rayonu, Şərifzadə küçəsi, 217/23 (24/7 zona)",40.382067,49.804137,,True,True,,,,,,
79IkOhvpiyFRRV5TxU5GB5,347,ATM RIM XIR A-PLUS STORE,ATM,"Binəqədi r., Sulutəpə qəs., Ruslan Allahverdiyev ev. 1 döngə 7 (A-Plus market)",40.431699,49.769746,,False,True,,,,,,https://images.ctfassets.net/rckhx7d9app2/oyuANpHalzH0MsS8xTRbn/52ceb93c9a58113a0ea1e60ba6b5f888/WhatsApp_Image_2025-06-11_at_14.56.45__1_.jpeg
7lcyWg0RWtJuL0ABbpbUCA,1585,ATM RIM XIR ALAT IGTISADI ZONA,ATM,"Bakı, Qaradağ r., Bakı-Səlyan şoss-nin 70-ci km.-də Hacıqabul-Astara yolayrıcında Ələt qəsəbəsi (Ələt İqtisadi zona)",39.969855,49.415215,online,False,True,,,,,,
1OO05AVJA3BUV2i89GuFid,2805,ATM CNV ARAZ MARKET 8 KM,ATM,"Bakı, Nizami rayonu, C.Naxçıvanski küçəsi, 71 (""Araz"" ticarət mərkəzi)",40.40918493454496,49.956404224750806,,True,,,,,,,https://images.ctfassets.net/rckhx7d9app2/5YIgBTrylLeZp0UUTbsIDs/7cdb6e291cd41c917d0953140047707d/d1c855e7-979f-4f89-9330-f4069b788783.jpg
4ciZypZ85oUfSliYSRvKjb,2803,ATM SUMQAYIT ORDUBAD MARKET,ATM,"Sumqayıt, H.Əliyev pr. 326 (Ordubad market)",40.58307277619844,49.67473426130814,,True,,,,,,,https://images.ctfassets.net/rckhx7d9app2/2LH0Vg2yHqjqOep0E0Cbga/dae8a8075f8bb73d0fa3b1ca78df7c4c/WhatsApp_Image_2024-05-16_at_15.49.17__1_.jpeg
4QPOUpGLpaXZ4UsmYLrQaA,2804,ATM SUMGAYIT HIPER MARKET,ATM,"Sumqayıt şəh., 10 MKR ev Babək küçəsi 8A",40.568932,49.691457,,True,,,,,,,
2bKWSlkh1r1sqMYcU2hMJ8,240,ATM RIM XIR LOKBATAN BAZARSTORE,ATM,"Bakı, Qaradağ rayonu, Lökbatan qəsəbəsi Lökbatan yolu küçəsi (Bazarstore Lökbatan)",40.307830221097994,49.74955244926426,,False,,,,,,,
5g4yR8HVLcgDAwZZg4EnNU,2801,ATM RIM XIR BILECERI DYV ARAZ,ATM,"Bakı ş., Binəqədi r., Biləcəri,  Yəhya Hüseynov küç., (Araz market - Biləcəri DYV)",40.432162,49.804411,,True,,,,,,,https://images.ctfassets.net/rckhx7d9app2/4NxIGPB1fVL6Jx06QgvZmc/90926808abd9b964ee852c0226703416/WhatsApp_Image_2025-06-11_at_13.01.59.jpeg
mtskmftc9A2frWgIgcczP,258,ATM RİM XİR BILACARI ARAZ MARKET,ATM,"Bakı, Binəqədi rayonu, Biləcəri qəsəbəsi, Mehdi Hüseynzadə küçəsi (Araz market)",40.437115,49.801995,,False,,,,,,,https://images.ctfassets.net/rckhx7d9app2/uppF54i4Huuf5xWNQMWYG/e156f9ac4c2864a7251bb312e64bda3b/WhatsApp_Image_2025-06-11_at_13.22.06.jpeg
6ydoKME3sAV4HBD569sBEJ,266,ATM CNV ARAZ S.BAHLULZADE,ATM,"Bakı, Binəqədi rayonu, S.Bəhlulzadə küç. 93 (Araz S.Bəhlulzadə)",40.41396,49.83931,,False,,,,,,,
11SQ1nu0i4K808xDLYbgXg,2818,ATM RIM XIR SARAY ARAZ ASADOV,ATM,"Abşeron rayonu, Saray Qəsəbəsi, General Məhəmməd Əsədov və 20 Yanvar küç. kəsişməsi (Saray Araz market-2)",40.53021,49.71436,,True,,,,,,,
5fb1U4SVfRNMB6B5UCZiUD,2797,ATM RIM XIR BINAGADI MARKAZ ARAZ,ATM,"Bakı, Qaradağ r., Səngəçal qəs. Səlyan şossesi, 43-cü km (BP-Sanqaçal terminal)",40.4668,49.82767,,True,,,,,,,
6QFPbmvnsY9Jct3ycx0njs,2817,ATM RIM XIR ARAZ SARAY PETROL,ATM,"Abşeron rayonu, Saray qəsəbəsi (Araz market Petrol)",40.54801,49.71297,,True,,,,,,,https://images.ctfassets.net/rckhx7d9app2/7KPlOPBdlMFLJ5oaH9FEPi/fc0c7172a48a7dab756a7757b8c7aed6/78.jpeg
6kW0EO06J8LJ7EH3HisKJS,2802,ATM SBC RISH AMIRCAN GRANDMART,ATM,"Suraxanı rayonu, Əmircan qəsəbəsi, İlqar Məmmədov küçəsi",40.433184,49.983698,,True,,,,,,,
4EIX571zmlfdkouHG0tGrj,2006,ATM SBC RİSH KEND AHMEDLİ OBA,ATM,"Bakı, Xətai rayonu, Kənd Əhmədli qəsəbəsi Seyid Mirhəsən Ağa küçəsi 24/4 (Oba market)",40.38546,49.94351,,False,,,,,,,
3G2u5w79Ihtqc3bqg9dPVC,2827,ATM SBC RISH QARACHUXUR. TAMSTORE,ATM,"Bakı, Suraxanı rayonu, Zaur Şərifov küçəsi (Tam store Qaraçuxur)",40.40127,49.9749,,True,,,,,,,
7trVfPxhprnQjGFgfeWEn2,2824,ATM SBC RISH PIRALLAHI ARAZ,ATM,"Bakı,  Pirallahı rayonu, Kamil Rzayev küç. ",40.45563,50.33721,,True,,,,,,,
4WcZMADUUXOMv4BC8R3H6z,2826,ATM CNV SHAGAN/MARD OBA,ATM,"Bakı, Xəzər r. Mərdəkan qəs. S. Esenin (Oba Mərdəkan)",40.487765483014805,50.13811918080828,,True,True,,,,,,
2OEgUecDAMTMqRuKE62t8j,1830,ATM RİM XİR OBA M. MUSHFIGABAD,ATM,"Bakı, Qaradağ rayonu, Müşviqabad qəsəbəsi (Oba market)",40.463923,49.629655,,False,,,,,,,
1Wxy4kJFt8tehqUlrWykTH,2335,ATM RIM XIR GARADAG BP SANGACAHAL,ATM,"Bakı, Qaradağ r., Səngəçal qəs. Səlyan şossesi, 43-cü km (BP-Sanqaçal terminal)",40.384720315384406,49.82882713584962,,True,True,,,,,,
67S125qrIKGbjA6uJO8im3,2721,ATM RIM GEN GANJA İ.GAYIBOV OBA,ATM,"Gəncə şəh., İ.Qaibov küç. 195 (Oba market)",40.67883374219593,46.36995483475747,,True,True,,,,,,https://images.ctfassets.net/rckhx7d9app2/5TLFr9h2fgL4T4iLdTvMAq/de867e22f33e3ebb4102c8cd7b48e799/WhatsApp_Image_2025-09-11_at_11.16.48.jpeg
5TjOsinijFttMtO7bfEyg,2781,ATM RIM GEN GANJA NUR MARKET,ATM,"Gəncə ş., Azərbaycan əsgəri küçəsi (NUR market)",40.67883374219593,46.36995483475747,,True,True,,,,,,https://images.ctfassets.net/rckhx7d9app2/3Vs6APqmQ1w2BaCy8vgDaC/e36968136c1e5abfe9e389c0cb85ff8f/WhatsApp_Image_2025-09-10_at_16.10.25.jpeg
2k8t14qiUftbDtztBtPdBQ,2364,ATM NAKHCHIVAN MEGASTORE SUPERMARKET 2,ATM,Naxçıvan şəhəri MEGASTORE SUPERMARKET,39.193341,45.409979,,True,,,,,,,https://images.ctfassets.net/rckhx7d9app2/3GZva9mmbj0dMz2RAVII3i/fe76b7dd40cb6a10ae69fb6e05f884a9/ecedb169-6562-48ee-8d4d-b330b6fbd907.jpg
6Wx7Z1fgSAk8LsVQqsoeXA,2005,ATM RIM AGDAM QUZANLI MARKET,ATM,"Ağdam r., Quzanlı qəsəbəsi, H.Əliyev pr. ",40.163327,47.156348,,False,,,,,,,https://images.ctfassets.net/rckhx7d9app2/7kZpscXGFjLGdd4Xg5IWYF/d57a2de1a5fbf5d49dc98d3dee245df4/WhatsApp_Image_2023-08-17_at_12.00.45.jpeg
73CIH9lCAUin0yYNrT7SiZ,2799,ATM CNV SABUNCHU ARAZ MARKET,ATM,"Bakı, Sabunçu rayonu, Sabunçu qəsəbəsi, Qırmızı küçə 5",40.444828,49.943353,,True,,,,,,,
19xCWHoVHx08l00KMMTlUT,277,ATM RIM XIR ALAT TABRIZ MARKET,ATM,"Bakı, Qaradağ r., Ələt qəsəbəsi, Ələt-Astara yolu, 1-ci Ələt k. (""Təbriz"" market)",39.95334581267796,49.40353455061356,online,False,,,,,,,
2seJDZGj7Tu8bOPll2Tu8e,22,ATM RIM XIR UCUZ MAR SUMGAYIT,ATM,Sumqayıt şəhəri 17 mkr General Məhəmməd Əsədov küçəsi  199 (Ucuz market),40.55927354173856,49.70441447804777,,False,,True,,,,,
2FFpuMwnemvcxw3EvVhQeB,18,ATM CNV HOVSAN OBA MARKET,ATM,"Suraxanı rayonu, Hövsan qəsəbəsi , Çöllük küçəsi 5",40.359425,50.07105,,False,,,,,,,
37JBKdLFIrD7pH9h1Homuf,102,ATM CNV GARAYEV BRANCH 1,ATM,"Nizami rayonu, T.Abbasov və Ə.Hacıyev küç. Kəsişməsi 2453 məhəllə",40.419242,49.933865,,False,,,,,,,
1o3Eh9u4a9ehAXQsgK7Wff,1712,ATM RIM AGD YUXARI LEKI MARKET,ATM,"Bakı-Qazax yolunun 261-ci km (Yuxarı Ləki kəndi, Ləki Market)",40.538446,47.424371,,False,,,,,,,
6IBNV6CXTCPkfg2f7sVsGv,1034,ATM RIM YEV AGDASH 1INCI MARKET,ATM,"Ağdaş r., Məşəd kəndi (1inci market)",40.63019365175335,47.46457721515742,,False,,,,,,,
5bI1G4FRgfrtyTfRXTJgle,456,ATM RIM AGDASH BIRINCI MARKET,ATM,"H.Əliyev pr., 73A",40.640642,47.470164,,False,,,,,,,
1dGaMgdYPHnx3Kda4Xp8YO,170,ATM  AGDASH STORE MARKET,ATM,"Ağdaş rayonu, Xosrov kəndi (Store market)",40.63277,47.572907,,False,,,,,,,
36jbkL9ervMJ5yEtwbfmsp,360,ATM CNV YENI GUNESHLI ARMOSTORE,ATM,"Bakı, Suraxanı r., Yeni Günəşli qəsəbəsi, D yaşayış massivi bina 8 (Armostore)",40.371024,49.978146,,False,,,,,,,
7c0vjCNs99XHCAqTX8NnEj,970,ATM TOVUZ QARAXANLI KENDI,ATM,"Tovuz, Tovuz, Qaraxanlı ",41.04345566976774,45.649950107518286,,False,,,,,,,https://images.ctfassets.net/rckhx7d9app2/38tDF7ZrvIQD7Ab1RjknQW/9cee1cf03c277c2b85bab5b3cd7a660e/WhatsApp_Image_2025-01-15_at_14.42.20.jpeg
pj4OjvKrlFQOnqfgTRq0o,2571,ATM OGUZ RIM AGDASH BRANCH,ATM,"Ağdaş, H.Əliyev prospekti, 96 (ABB-nin Ağdaş filialı 24/7 sahə)",40.64464509611075,47.47541481995137,,True,True,,,,,,https://images.ctfassets.net/rckhx7d9app2/3bjeym3uJbY35cd9yId6Z1/32791ac114c8c839a79ef369a4e057fd/a59f5101-7fe5-4d34-949d-fa28ab4b8756.jpg
1kTVOJsIsz73hb3X4Kp7ke,2572,ATM OGUZ RIM AGDASH BRANCH,ATM,"Ağdaş, H.Əliyev prospekti, 96 (ABB-nin Ağdaş filialı 24/7 sahə)",40.64464509611075,47.47541481995137,,True,True,,,,,,https://images.ctfassets.net/rckhx7d9app2/25FievUv1iImHNzsZrYdES/1131f74ecb0e5f3a6d6bf050a26ccba9/a59f5101-7fe5-4d34-949d-fa28ab4b8756.jpg
1izOngH1qFuJEJnH6oQzQ4,454,ATM RIM AGD AGDAS MARKET,ATM,"Ağdaş ş., M.İsayev küç. ""Ağdaş"" market (Beş mərtəbəli binanın birinci mərtəbəsi)",40.648036,47.471287,,False,,,,,,,https://images.ctfassets.net/rckhx7d9app2/5BmhbXPrCV6Xy42eaqJy1a/65d86f395cf955ff6f366b53f04d335d/08113c86-d727-4bb3-8e86-307be2271f8e.jpg
1nQw585PpTVMg9fLDkvWcw,278,ATM RIM YEV AGCABEDI BAZARSTORE,ATM,"Ağcabədi r., Hüsü Hacıyev küç",40.04389591992003,47.44712674755466,,False,,,,,,,https://images.ctfassets.net/rckhx7d9app2/66pHNUqcpvXSn4qfbn3yWd/d52fe819c761ccae92ef4d6bd6e75a67/24b9cf26-c6e6-4539-b4aa-048af42339d0.jpg
2DfvfwL8JCsEWQ4wyT7xG5,362,ATM RIM YEV AGDASH LEKI HALAL M.,ATM,"Ağdaş rayon,Yuxarı Ləki kəndi (Halal Super market)",40.573779,47.324767,,False,,,,,,,https://images.ctfassets.net/rckhx7d9app2/51ccKcVVMHXA8j6TYWGXln/6b2ebfb105ee26da60d18fb0e3085af7/51996b46-c14f-42f4-b3e7-8e819fd478ea.jpg
72Tg0DJoWOw4y5dttE2Uee,211,ATM CNV HOKMELI IDEAL MARKET,ATM,"Abşeron r., Bakı-Şamaxı şossesi 12-ci km. (İdeal market)",40.446374069275095,49.70095361852881,,False,,,,,,,https://images.ctfassets.net/rckhx7d9app2/334LEIOP15WhXGs1lZazyc/1a490f582d2dcb4ebdf0adf39ca858b6/WhatsApp_Image_2024-05-14_at_13.22.31.jpeg
3WbUooYNVijOmVOba63Wsc,366,ATM CNV SUMGAYIT PIONER,ATM,Sumqayıt şəh. 45 məhəllə N.Nərimanov küç. (Pioner market),40.584051058045105,49.679602833348206,,False,True,,,,,,https://images.ctfassets.net/rckhx7d9app2/5JEuo49QtSZP16INy3kkNc/1d2fe5ee67566841f1ee8f26b2992294/WhatsApp_Image_2024-05-16_at_14.52.44.jpeg
hePo9DjPgy9U4UrKJQYVk,236,ATM TOVUZ ASHAGIQUSHCU ARAZ M,ATM,"Tovuz rayonu, Aşağıquşçu kəndi ( market )",40.9668139,45.6559002,,False,,,,,,,https://images.ctfassets.net/rckhx7d9app2/DNEF6Y6fdDSANOI9Vdc0j/9a7e8112f0c2c2bbc2b756a5c8273488/WhatsApp_Image_2025-01-15_at_17.35.35.jpeg
61VpCpJDVpR3UuUbfgqWe3,201,ATM TOVUZ EYYUBLU KENDI,ATM,"Tovuz, Tovuz, Əyyublu kəndi  (Ticarat mərkəzi)",40.92818093292794,45.81789255357261,,False,,,,,,,https://images.ctfassets.net/rckhx7d9app2/3j48c6z1R5KFwVHvutetsg/64a123783c359fa8d29ddd5cbb8d5b6a/WhatsApp_Image_2025-01-16_at_08.13.07.jpeg
6JjSnXVNSr5c1ntoyP0zjU,921,ATM CNV MASAZIR GARABAG MARKET,ATM,"Xırdalan şəhəri, Masazır qəsəbəsi, qacqinlar üçün yeni yaşayış  ""Qarabağ"" marketin ərazisi",40.484856,49.781844,,False,,,,,,,https://images.ctfassets.net/rckhx7d9app2/7EqlOD4RtpBaaADcUrm26/f679a7b8d5aa1e05177d7840e54ffbaf/WhatsApp_Image_2024-05-14_at_14.36.07.jpeg
4S50NNACl91LL1gtaMHJ7v,938,ATM CNV SUM 17-CI MAH EL MARKET,ATM,"Sumqayıt, 17-ci Məhəllə, Əşya bazarı (Qayalı)",40.59203441545845,49.66035397700388,,False,,,,,,,https://images.ctfassets.net/rckhx7d9app2/3xXEAxWIg6mpcyY7SvOfP/86b400be99735712aae4451bd43ddf4c/WhatsApp_Image_2024-05-16_at_15.16.08.jpeg
3nUzGCpAIWMdqzAPT2achT,1025,ATM CNV TAGIYEV SHEHERCIK GRANDMART,ATM,Stansiya Sumqayıt şəhərciyi (Grandmart),40.557397,49.587704,,False,,,,,,,https://images.ctfassets.net/rckhx7d9app2/1Yj31QUimQLZ7Bk0pIIerI/ec0497b3d764f02c5035045614b010a2/WhatsApp_Image_2024-05-17_at_13.24.18.jpeg
10CGppKHiBTtgsWlej8JkR,2317,ATM RIM GEN SHAMKIR BRAVO,ATM,"Şəmkir r., M.Ə.Sabir küçəsi 15 (Bravo Şəmkir)",40.853387,46.031344,,True,,,,,,,https://images.ctfassets.net/rckhx7d9app2/2XZgD0bkvha2fnnec9j4RJ/5438d2f24adb43b5ac304669c20096f7/WhatsApp_Image_2025-01-16_at_10.12.39.jpeg
5N9i3FFfMlX6aV0cMCbc4J,2268,ATM RIM GEN SHAMKIR KUR QES,ATM,"Şəmkir, Kür qəsəbəsi (Market-2)",40.906036376953125,46.18333435058594,,True,True,,,,,,https://images.ctfassets.net/rckhx7d9app2/2HUNd0AWSMkttvev8Es1AN/758134997d5570b896607813bba6a105/WhatsApp_Image_2024-12-25_at_09.48.59.jpeg
33repAtptXgY3vpS5FEmGz,2074,ATM RIM GEN SHAMKIR ZIRVE MARKET,ATM,Şəmkir şəhəri S.Vurğun küçəsi 59C,40.816968,46.013744,,False,,,,,,,https://images.ctfassets.net/rckhx7d9app2/6ExDQEmO6jaXbgX1SmNIrS/ae4be5d31dd9601ef138509eb1a39f48/WhatsApp_Image_2024-12-25_at_14.03.55.jpeg
1xX8SYfqgGhFGARaXUYZaj,2026,ATM RIM GEN SHAMKIR SEYFALI KEND,ATM,"Şəmkir rayonu,Seyfəli kəndi ( ""Əlihüseynli"" market )",40.75804138183594,46.13218307495117,,False,,,,,,,https://images.ctfassets.net/rckhx7d9app2/XQhPd9MfTvcmfE2VnV8Vq/53d4cbdef0e26d94663afc5eadc30f64/WhatsApp_Image_2025-01-16_at_10.58.43.jpeg
7A5WeX9dgSoDIErwMuUxFi,1858,ATM RIM GEN SHAMKIR KECHILI KEN,ATM,"Şəmkir rayonu, Keçili kəndi, Aşıq Məsim küçəsi, ""Elmir"" şadlıq sarayında yerləşən gözəllik salonu",40.86296463012695,46.1319694519043,,False,,,,,,,https://images.ctfassets.net/rckhx7d9app2/Gtt08bXoGIy7cogX1s5he/47712e56049ae4dfc8d112705357fe95/WhatsApp_Image_2024-12-25_at_09.16.31.jpeg
72NOd02TGPd51SoISUvBXj,1857,ATM RIM GEN OBA ZAYAM CIRDAXAN,ATM,"Şəmkir rayonu, Zəyəm Cırdaxan kəndi, ""Oba"" market",40.88614001331207,45.823961127058915,,False,,,,,,,https://images.ctfassets.net/rckhx7d9app2/4bMJHdNqrgyXxNaCW8I4hH/701965bd640b649685e4f2096485207d/WhatsApp_Image_2024-12-25_at_16.38.02.jpeg
6OCkkQuFHtoIL9nQS98YVm,1844,ATM RIM GEN SHAMKIR CHENLIBEL K,ATM,"Şəmkir rayonu, Çənlibel kəndi, Əziz Əliyev küç. 141",40.736359349152686,45.876675387982445,,False,,,,,,,https://images.ctfassets.net/rckhx7d9app2/1g0qm9rX9pop0NIWgVZrHp/b615ca2629c0fec86bc0112b5b0e0020/WhatsApp_Image_2025-01-18_at_14.17.19.jpeg
44mL6bv95zMPyalDCpYilw,1843,ATM RIM GEN SHAMKIR DALLAR QES,ATM,"Şəmkir rayonu, Dəllər qəsəbəsi, M.Əsədov küç. 10 ",40.86807171178731,46.035563324060746,,False,,,,,,,https://images.ctfassets.net/rckhx7d9app2/5RCBdNmebsRRemplqtt5GR/eae278d87028e750fb0398bb9503c279/WhatsApp_Image_2024-12-25_at_11.04.38.jpeg
16P46BtcCCFqmPDmktONI2,1037,ATM RIM GEN SHAMKIR STANSIYA,ATM,"Şəmkir, Təzəkənd qəsəbəsi (Şəmkir dəmir yolu stansiyası, market)",40.83558185619012,46.14895179949743,,False,,,,,,,https://images.ctfassets.net/rckhx7d9app2/2HKvOxPEnzqPaNl5sqUzxL/c65ff759a6bb797433151ac0e9fc7861/WhatsApp_Image_2024-12-25_at_08.24.47.jpeg
3SEzfZHAIH3VKc8tuJRj7N,774,ATM RIM GEN SHAMKIR ZUMRUD MAR-2,ATM,"Şəmkir, Dəllər (""Zümrüd"" Market)",40.877960046983134,46.02822894818403,,False,,,,,,,https://images.ctfassets.net/rckhx7d9app2/16UMxOHFQ2LRSfIUt69Qn6/3c2e03f953da948ca34f50821ad495a4/WhatsApp_Image_2024-12-25_at_11.36.32.jpeg
3GDULtOA5f9E4xwzDaTFxe,724,ATM RIM GEN SHAMKIR ZUMRUD MAR,ATM,"Şəmkir şəhəri S.Vurğun kuçəsi 1(""Zümrüd"" Market)",40.80845508143643,46.011625364971025,,False,,,,,,,https://images.ctfassets.net/rckhx7d9app2/1U5nVZejvlYp8lOrSYgEbt/f654461271900b59c661565b579990ac/WhatsApp_Image_2024-12-25_at_13.52.17.jpeg
5UxVS5Rm2NP0O3b8qV2yIU,604,ATM RIM GEN SHAMKIR CHINARLI QES,ATM,"Şəmkir, Çinarlı qəsəbəsi, ""Göysu"" market",40.78054386242497,46.10962366307333,,False,,,,,,,https://images.ctfassets.net/rckhx7d9app2/4Ej5YuUuf5SqkLBFBFWBne/5d150c3a666d5ddfd3d3a11d4c9ac073/WhatsApp_Image_2025-01-16_at_10.39.39.jpeg
77HOJiTYB9xtq3WUjCUX8Z,603,ATM RIM GEN SHAMKIR APTEK,ATM,"Şəmkir, 20 Yanvar küç., (Aptek)",40.827083,46.027557,,False,,,,,,,https://images.ctfassets.net/rckhx7d9app2/3oCp4i24zQBjdVe2uADoFT/bfa76cce011407142ff64e025dda6e79/WhatsApp_Image_2024-12-25_at_14.26.41.jpeg
4ki71OQmcWcfsNrtmaHTlU,493,ATM RIM GEN SHAMKIR OBA,ATM,"Şəmkir şəhəri, N.Nərmanov küç,ev 36 (Oba market)",40.82791863759396,46.03316042503847,,False,,,,,,,https://images.ctfassets.net/rckhx7d9app2/5fJOr6Rmwn0dz4j859ZNP8/1c8545f7f8f60de952a1dcc8eac0e0cf/WhatsApp_Image_2024-12-25_at_14.46.28__1_.jpeg
3m740Xrv4bxmGl5bcFCiLX,328,ATM RIM GEN SHAMKIR BAZARSTORE,ATM,"Şəmkir, Elşən Allahverdiyev küç. (""Bazarstore"")",40.840772,46.039142,,False,False,,,,,,https://images.ctfassets.net/rckhx7d9app2/3Z65c2DW7IvSL8L2XDWEJ8/b3713744e3b625c473933f6631160f92/WhatsApp_Image_2024-12-25_at_11.55.44.jpeg
7g8Ae4jkD8KOpNydMw2BnL,145,ATM RIM GEN SHAMKIR DUYERLI OBA,ATM,"Şəmkir ray.,DÜYƏRLİ K (Oba market)",40.91224174293924,45.849760757744306,,False,,,,,,,https://images.ctfassets.net/rckhx7d9app2/6iWeDtL2RdxLvPGyaB0oEa/065916dc1a5b2acff9db6957f4750012/WhatsApp_Image_2024-12-25_at_16.21.30.jpeg
C3VLC2mOeBlso8Kbr85A0,2176,ATM RIM QAZAX SHIXLI MARKET,ATM,"Qazax rayonu, Şıxlı qəsəbəsi ( market)",41.3253564602294,45.08129201689551,,True,,,,,,,https://images.ctfassets.net/rckhx7d9app2/1rvcqDJH8XsVTjZoD0P9Ns/5e6a34e91f56ee8993a84289894aba04/WhatsApp_Image_2025-01-15_at_08.41.03.jpeg
6lBXtdPhA93oxT7wCS9QhO,1326,ATM QAZAX AVIA PETROL,ATM,"Qazax -Çaylı yolu, QƏrb Qapısı restoranın yanı",41.1032,45.338827,,False,,,,,,,https://images.ctfassets.net/rckhx7d9app2/6JeGJyrdDz2puP32OQoelq/28e8f693560232b9d40f27e308b79025/WhatsApp_Image_2025-01-15_at_11.17.28.jpeg
1l3fEaylGRXzR54Gt7RMpl,1012,ATM QAZAX IK MARKET,ATM,"Qazax, Ə.A.Şıxlinski və Ş.İ.Xətai küçələrinin kəsişməsi (İk market)",41.096924507411124,45.35013761924103,,False,,,,,,,https://images.ctfassets.net/rckhx7d9app2/7pvJVftK6BdFrtYYiQa5Gm/02142ec3cb489088f6a1ac599086ebbe/WhatsApp_Image_2025-01-15_at_11.34.56.jpeg
1Eb1zmvzvHBIOcejELtbBx,998,ATM QAZAX KEMERLI K. ELVIN MARKET,ATM,Qazax rayonu Kəmərli kəndi,41.22004754785183,45.12276684184158,,False,,,,,,,https://images.ctfassets.net/rckhx7d9app2/1dcP85BnLXvg4WcL0x1mj3/344de60f81aaa32a51e24d64f4275f07/WhatsApp_Image_2025-01-15_at_10.39.43.jpeg
5l4c0OjkFtt7jIwHswWnLe,978,ATM GAZAKH MURAD MARKET,ATM,Qazax Şəh. N.Nərimanov 72C (“Murad Market”),41.09803950538207,45.342922309969794,,False,,,,,,,https://images.ctfassets.net/rckhx7d9app2/37gf4ORkMdXAnx7miT1tHV/e9dc0f6d0ddefa801582f9d34a0855c6/WhatsApp_Image_2025-01-15_at_11.26.32.jpeg
4GJexMiSUaYfucGM2nC9KT,726,ATM QAZAX Y.SALAHLI MARKET,ATM,"Qazax, Qazax, Yuxarı Salahlı (market)",41.240084496571846,45.263357940062775,,False,,,,,,,https://images.ctfassets.net/rckhx7d9app2/6lAEbiklzAzOaG9yzQB20H/73c20accd5aabaf1bda9deb1200f6d0d/WhatsApp_Image_2025-01-15_at_09.24.08.jpeg
4rXlyq545SK6KJ75hMcfwH,485,ATM QAZAX GOYCHA MARKET,ATM,"Qazax, Azadlıq küç., (Vağzal Binası)",41.089427,45.352479,,False,,,,,,,https://images.ctfassets.net/rckhx7d9app2/2WHKznQpjlcpdgbYFtGVrN/e544197a3e6819a09e0a9a257dcdfc6e/WhatsApp_Image_2025-01-15_at_11.51.50.jpeg
53FirZNcJQGswsJV08y9AS,323,ATM RIM QAZAX TAMSTORE,ATM,"Qazax şəhəri, H. Əliyev prospekti (Qazax Tamstore)",41.092898,45.365639,,False,,,,,,,
j1WyCdXBjWQ1jULi1bvNu,2168,ATM GAZAX BRANCH 2 NR,ATM,"Qazax r., Sabir küçəsi 75 (ABB Qazax filialı)",41.089988,45.358857,,True,,,,,,,https://images.ctfassets.net/rckhx7d9app2/3Dt0UXeHh234Cljt3XHoFT/85089204c1c3b32f5857a2a3485c15c0/WhatsApp_Image_2025-01-15_at_12.27.04__1_.jpeg
1JuqZXzgLqnuO5DQ3oKbwa,1824,ATM RIM XIR XIRDALAN BIZIM MARKET ,ATM,"Xırdalan şəhəri, 27-ci məhəllə Qalubiyyə küç.3/14, ""Bizim market""",40.45453377078769,49.74504869390712,,False,,,,,,,https://images.ctfassets.net/rckhx7d9app2/2eJKJshiLt2YeLmmm09nem/42bffa0dd931e4f1f787c39df3704fd5/WhatsApp_Image_2024-05-14_at_16.25.56__1_.jpeg
7FRAktDXLYV8ofmweZicyc,2142,ATM CNV CEYRANBATAN ARAZ MARKET,ATM,"Abşeron rayonu, Ceyranbatan qəsəbəsi, Bakı-Sumqayıt şossesi",40.54360051569621,49.66303076117276,,False,,,,,,,https://images.ctfassets.net/rckhx7d9app2/3HoF9sQhi7gnwEv9CjLqX0/f5f56e82c52ffff9c3f35b695b9d8b4c/WhatsApp_Image_2024-05-15_at_14.01.16.jpeg
TyQkmgsjF7lCcPvHwfq2h,2149,ATM CNV STANSIYA SUMQAYIT,ATM,"Sumqayıt ş., Stansiya Sumqayıt",40.5563,49.6099,,False,,,,,,,https://images.ctfassets.net/rckhx7d9app2/41V6EHPyZMh4E9fxuERQKf/9437f67e5b783990ab7bedf9b8dad8fb/WhatsApp_Image_2024-05-17_at_13.04.49.jpeg
1laczHeJMmJm7JBcDZvrIp,2201,ATM SUMGAYIT ASAN NR,ATM,"Sumqayıt şəhəri, 15-ci məhəllə, ev 42d (ASAN xidmət - Sumqayıt)",40.587334,49.664962,,True,,,,,,,https://images.ctfassets.net/rckhx7d9app2/30TFIFpk50FfHz3xpH2LfR/4df48f571286a2ced06847dc452a11c5/WhatsApp_Image_2024-05-16_at_15.29.19.jpeg
6GRDIrwAErnSdyuW52bIQw,2281,ATM CNV CORAT QASABA NUMAY.,ATM,"Sumqayıt, Corat qəsəbəsi, (Qəsəbə nümayəndəliyi)",40.57292344869721,49.70866807708819,,True,,,,,,,https://images.ctfassets.net/rckhx7d9app2/7whZkqotNVzxFbfKsrSaHa/03ab68c8dbc913b2df12addd05763c54/WhatsApp_Image_2024-05-15_at_16.28.41__1_.jpeg
1i1cMlBFUqTdrRKebWvadj,2339,ATM CNV MASAZIR ARAZ M WR,ATM,"Abşeron rayonu, Masazır qəs. Nəsib bəy Yusifbəyli küçəsi, 16a/2 (ARAZ market)",40.478819,49.753169,,True,,,,,,,https://images.ctfassets.net/rckhx7d9app2/6Li73jRonMIuxn9HqZDhH8/ffbb268dbe89513a07bcf18bf24d4d50/WhatsApp_Image_2024-05-14_at_15.10.20.jpeg
6LkUbEnkHLOV3msaKuE4CQ,2377,ATM CNV MASAZIR BAZARSTORE WR,ATM,"Abşeron r-nu, Masazır kəndi (Bazarstore Masazır)",40.49550642191403,49.75990838920517,,True,True,,,,,,https://images.ctfassets.net/rckhx7d9app2/4Xstp4sYwtmu7pJg1EMNuR/e7f89e34a82f0c5f91cb25cb5fadccba/WhatsApp_Image_2024-05-14_at_14.59.02.jpeg
1Idam8pjSEgR23hLFoZpcl,2379,ATM SUMGAYIT BAZARSTORE-2 WR,ATM,"Sumqayıt, (Bazarstore Sumqayıt-2)",40.575869,49.679852,,True,,,,,,,https://images.ctfassets.net/rckhx7d9app2/I35opvGORdEJsjeUje1jC/9ec94f91fc2c40f17599c72649db9388/WhatsApp_Image_2024-05-16_at_14.19.45.jpeg
LiALMopNbhRW92q8q7ChN,2384,ATM RIM XIR MASAZIR BRAVO,ATM,"Abşeron, Masazır qəsəbəsi, istiqlaliyyat küçəsi, (Bravo Masazır)",40.49081239198716,49.7547794024174,,True,,,,,,,https://images.ctfassets.net/rckhx7d9app2/6xgS7CrkkGeOa8SZfOZ0ct/3bafb48351a0cba86fde9d7cce2b50af/WhatsApp_Image_2024-05-14_at_14.15.29.jpeg
iMj45WfJs5cNvJE5DipL4,2480,ATM XIR RIM YENI SUMGAYIT 1 GRG,ATM,"Sumqayıt ş., 13-cü mkr H. Hacıbəyov küç. (ABB Yeni Sumqayıt filialı)",40.57039155386206,49.69006306351688,,True,,,,,,,https://images.ctfassets.net/rckhx7d9app2/199SC3EBuVkezhI9PVAbZq/b83b02d9464e94d9883d980c0e0d9930/WhatsApp_Image_2024-05-15_at_15.31.41.jpeg
3aHpBZGRIjPc1vnfIQAIeX,2481,ATM YENI SUMGAYIT 2 GRG,ATM,"Sumqayıt ş., 13-cü mkr H. Hacıbəyov küç. (ABB Yeni Sumqayıt filialı)",40.570405270445434,49.69004480470302,,True,,,,,,,https://images.ctfassets.net/rckhx7d9app2/kGPZDQbBZbOqz7TqhdjyR/a4a00c63e30772c2d43210fe037cc491/WhatsApp_Image_2024-05-15_at_15.31.41.jpeg
6o6BMGGqSCdjWAq0kPkCA9,2507,ATM XIR RIM XIRDALAN BRANCH 1 GRG,ATM,"Abşeron, Xırdalan şəhəri, M.Rəsulzadə küçəsi 3 (ABB- Xırdalan filialı)",40.449048102506666,49.750372491439016,,True,,,,,,,https://images.ctfassets.net/rckhx7d9app2/1EzlSKOLhyTIEo1VejEaSP/b068496ccc95ed0c644db0052eab556a/WhatsApp_Image_2024-05-14_at_15.23.08__1_.jpeg
mHJn1x8Vi7kqBASw0KILU,2508,ATM XIR RIM XIRDALAN BRANCH 2 GRG,ATM,"Abşeron, Xırdalan şəhəri, M.Rəsulzadə küçəsi 3 (ABB- Xırdalan filialı)",40.44917978916914,49.75045339667672,,True,,,,,,,https://images.ctfassets.net/rckhx7d9app2/1YyOrlcSYK5h8WeEqV1QfZ/f22bdaa7c25db2fd189aec3c601d1245/WhatsApp_Image_2024-05-14_at_15.23.08__1_.jpeg
6rOtxb6BGkEAR3LmvVLAyd,219,ATM OGUZ RIM ISMAYILLI IVANOVKA,ATM,"İsmayıllı , İvanovka kəndi",40.74640017196066,48.029860170987625,,False,,,,,,,https://images.ctfassets.net/rckhx7d9app2/2JyCPhwdqzGnreQy9LqL4P/c2b4d540f5039874b60982048a817444/WhatsApp_Image_2024-06-12_at_15.04.41.jpeg
3aGUVhc6zTc2dzttj24UL9,527,ATM YEV RIM AGSU BOLMART,ATM,"Ağsu rayonunda  yerləşən  ""Bolmart"" market",40.58095797409315,48.394897651353865,,False,True,True,,,,,https://images.ctfassets.net/rckhx7d9app2/6HqpNZp5pLx7RL5UdDo4p5/67e112cb0f91bb33d996db0b35086ed2/WhatsApp_Image_2024-06-11_at_12.52.36.jpeg
6CGmKa7VfO1OpjpznQ0otH,600,ATM RIM OGUZ ISMAYILLI BAZAR MARKET,ATM, İsmayıllı şəh Ərəstun Mahmudov küçəsi (Bazar market),40.79267226382633,48.169699561930535,,False,True,True,,,,,https://images.ctfassets.net/rckhx7d9app2/3MRw9AR6CPjT7NkLRq4n7K/4dd58fbdb3b7984525849251275dc365/WhatsApp_Image_2024-06-12_at_14.02.24.jpeg
4vyStZPJN4mtxIi9rVDzOa,697,ATM MARAZA OBA MARKET,ATM,"Qobustan rayonu (""Oba"" market)",40.52740957348712,48.93747028587027,,False,,,,,,,https://images.ctfassets.net/rckhx7d9app2/5BahyN42udi5v276yu8ZgN/ae8c788c041ae5d2dcb154c488565b42/WhatsApp_Image_2024-06-11_at_08.18.47.jpeg
6FBqXixQ59ofF7UrhRsDJz,698,ATM GOBUSTAN RAMIL MARKET,ATM,Qobustan rayonu (Ramil market),40.53514055786753,48.913971206905494,,False,,,,,,,https://images.ctfassets.net/rckhx7d9app2/3WowAvsKBFxNeSW3D5o6wv/474b7392c73faf19b4e63220c61b6961/WhatsApp_Image_2024-06-11_at_08.07.17.jpeg
1ST6pwln0H0hjTjt8vhX7a,781,ATM SHAMAXI GOYLER K. OBA M. 2,ATM,"Şamaxı ş., Göylər kəndi  (Şamaxı OBA market 2)",40.492518,48.680252,,False,,,,,,,https://images.ctfassets.net/rckhx7d9app2/UwuYFwA35AbzzLPN8fVnm/53496940c32ab1a663c2bdeb7c326b99/WhatsApp_Image_2024-06-11_at_18.13.09__1_.jpeg
3PaslImZmNvvwk36DsHZgq,899,ATM RIM YEV AGSU  ƏLİ  MARKET,ATM,"Ağsu, Ağsu , M.Ə.Rəsulzadə küçəsi ",40.566579795289684,48.39097710477103,,False,True,True,,,,,https://images.ctfassets.net/rckhx7d9app2/Ym27dXq2LG6H5c9k8NcTp/b1dd5d1975691167bef39c395348b1d2/WhatsApp_Image_2024-06-11_at_13.01.23__1_.jpeg
7vu14Ks0CqA4VaIp78ONVm,905,ATM ISMAYILLI LAHIC SERHED MARKET,ATM,"İsmayıllı r., Lahıc yolu",40.732443,48.28161,,False,,,,,,,https://images.ctfassets.net/rckhx7d9app2/59BsncedMPTiNv5haemC1a/bc665a20ce6e73d654c8ac85eb3d53ce/WhatsApp_Image_2024-06-12_at_12.46.33__1_.jpeg
64duX8rvzLrWyCMAFTA3Ln,1402,ATM SHAMAXI CHUXURYURD UNIVERSAM ELDARADO,ATM,Şamaxı Çuxuryurd qəsəbəsi (ELDARADO,40.71225405301572,48.63295346911839,,False,,,,,,,https://images.ctfassets.net/rckhx7d9app2/3RgZPmfYQRtjMRI86B18fW/0a076be6164dcc255caf8f1cab9d4a80/WhatsApp_Image_2024-06-11_at_15.53.35.jpeg
49k3g4dXlgIPIgulh7itEU,1815,ATM RIM KUR AGSU ELİT MARKET,ATM,"Ağsu, Ağsu, S.Vurğun küçəsi,",40.558594692444395,48.4033726753108,,False,True,True,,,,,https://images.ctfassets.net/rckhx7d9app2/1tcff9ZIE1nkrYXAMvJeIT/504e7cb74fce8c4c2d7ba512a35cfac0/WhatsApp_Image_2024-06-11_at_13.19.14.jpeg
7chvRXMFg83auK47yv3Mrn,2182,ATM RIM OGUZ ISMAYILLI MUSTAFA  MARKET,ATM,İsmayıllı şəhəri Cavanşir küçəsi,40.788359993867466,48.14817404848242,,True,,,,,,,https://images.ctfassets.net/rckhx7d9app2/6YUOcFjWBJB7FpA7fQuRGU/d4fed14a8a8db2f5bd4838a70940f5ed/WhatsApp_Image_2024-06-12_at_16.08.25__1_.jpeg
1PK2fvfKrDAP1KyOLqfahA,2344,ATM RIM YEV AGSU BRANCH WR,ATM,"Ağsu, Azərbaycan küçəsi ( Ağsu filialı)",40.56748679167678,48.40215101688308,,True,True,True,,,,,https://images.ctfassets.net/rckhx7d9app2/6qabPypZ0nEZWgRBq9SXm0/cac0fc158ef9a2e833471fe03b5704a2/WhatsApp_Image_2024-06-11_at_13.40.26.jpeg
48xvNnXHSbRsMc9rBN4PDw,2545, OGUZ BASGAL KOMPLEKS,ATM,İsmayıllı rayonunun Basqal qəsəbəsində (Basqal istirahət kompleksi),40.72546744882046,48.3,,True,,,,,,,https://images.ctfassets.net/rckhx7d9app2/1H1qusvRZTEbsRVccha8Se/5cf3a7aaa674e1900cff81812886e37c/WhatsApp_Image_2024-06-12_at_11.04.09.jpeg
622heGUDFM6HQwSuN7Xlkm,2552,ATM SHAMAXI ASAN DN,ATM,"Şamaxı r., Şamaxı-Yevlax şossesi (ASAN xidmət)",40.613275939933565,48.66460331756562,,True,True,True,,,,,https://images.ctfassets.net/rckhx7d9app2/4Vg0wr1AGxlxanDsBnwS6d/b80b99a1c67ff5cb75bde1ed2767afdd/WhatsApp_Image_2024-06-11_at_16.22.38.jpeg
4I28wZjvhirZZ2zATFlb3L,296,ATM RIM GEN GOYGOL BALMART,ATM,Göygöl şəhəri Balmart marketi,40.580935,46.323174,,False,,,,,,,https://images.ctfassets.net/rckhx7d9app2/2YtDhO3Hk5t39ODSNUdwHL/5502a80c2b7b7212d25f5db7944d74f5/WhatsApp_Image_2025-01-19_at_13.11.02.jpeg
3JFkQzUftamSxYLrHUYrIM,398,ATM RIM GE GED INERNATIONAL  MIN,ATM,Gədəbəy Qızıl mədəni,40.58222707606838,45.80520595114627,,False,,,,,,,https://images.ctfassets.net/rckhx7d9app2/o9xhmsiiID4eIr7nDpRou/c163ae09d8e8b7c349839c33d5def469/WhatsApp_Image_2025-01-18_at_17.40.48__1_.jpeg
5n2v5NLbjs02BvV05D2oxe,554,ATM RIM GEN GOYGOL AMINE MARK-1,ATM,"Göygöl, 28 May küç. 3 (Gold Əminə market)",40.58438055454058,46.32713979777223,,False,,,,,,,https://images.ctfassets.net/rckhx7d9app2/4KVF4A6oles8YKeRFGhsqb/86365c5c956d6a331dbdf2c886acf29c/WhatsApp_Image_2025-01-19_at_13.15.31__2_.jpeg
26aSwgQY9S6IfWiWWORY4M,555,ATM GOYGOL EMINE MARKET-2,ATM,Göygöl şəhəri Azay Kazımov 1 (Gold Əminə market),40.591753,46.320091,,False,,,,,,,https://images.ctfassets.net/rckhx7d9app2/7iPPFqssbNANIXmpzjHCrk/b30dc66326474e6a0a04de194ce68f4f/WhatsApp_Image_2025-01-19_at_12.47.58.jpeg
2PgVs86WPsanUQMViwsD7w,616,ATM RIM GEN DASHKESEN OBA,ATM,"Daşkəsən, H.Əliyev küçəsi 38 (Oba market)",40.52100173901563,46.083509741303274,,False,True,,,,,,https://images.ctfassets.net/rckhx7d9app2/54dO5zw1m9L0xI0SowAYh1/d9a8fde65c72863de520ffbdf29c00e6/WhatsApp_Image_2025-01-19_at_11.36.06.jpeg
4LAuGf03NUlfUFHbAR5IkR,695,ATM RIM GEN GORANBOY AGCAKEND,ATM,"Goranboy, Goranboy, Ağcakənd kəndi ( Ərzaq mağazası )",40.42095495320553,46.57044766560512,,False,True,,,,,,https://images.ctfassets.net/rckhx7d9app2/7J5RkMb0WT7v3OA5J0jWGe/57739c4ad0db22ae53112da0f7a61c94/WhatsApp_Image_2025-01-18_at_11.13.49.jpeg
3xUcKTTdYBX84COtImfSGo,737,ATM SAMUKH YENIKEND QESEBESI,ATM,"Samux rayonu, Yenikənd qəsəbəsi",40.926711261387624,46.30477480589314,,False,,,,,,,https://images.ctfassets.net/rckhx7d9app2/28fSWswtRojYd0ptfX4mBw/a538356ef2f0278fbecbf1d6aef81d86/WhatsApp_Image_2025-01-19_at_09.27.45.jpeg
3D9x7PpXSxClZwW3Y21Yfq,1189,ATM RIM GEN GEDEBEY RUSTAM A,ATM,"Gədəbəy, Gədəbəy, R.Əliyev kəndi (Market)",40.502506644668244,45.75588957205038,,False,,,,,,,https://images.ctfassets.net/rckhx7d9app2/6VdVuOEFcVtdMKcxpliw4r/8c7d260f548e5e3627ef152cd23e747a/WhatsApp_Image_2025-01-18_at_15.34.33__1_.jpeg
2nbTKlAy7sa8WkXBR1di5j,1233,ATM GEDEBEY SLAVYANKA OBA,ATM,"Gədəbəy, Gədəbəy, Slavyanka Oba Market",40.659640423995974,45.80808174961761,,False,,,,,,,https://images.ctfassets.net/rckhx7d9app2/6LaenRnvqCgw1QThtAm9GC/7b44f8eaf333c219d176e757ded95855/WhatsApp_Image_2025-01-18_at_14.34.45.jpeg
1lV5QRfmq0QJ5vakyxEEJM,1708,ATM RIM GEN GOYGOL BALCHILI,ATM,Göygöl Balçılı kəndi,40.70163449171468,46.28085693051547,,False,,,,,,,https://images.ctfassets.net/rckhx7d9app2/1Ktv5PERiFuEx3ZBly2agq/ac00ad0da7b6fe2df9bb69404b74fea0/WhatsApp_Image_2025-01-19_at_10.46.53.jpeg
6O74ZYAL99EcefeOhyB5K7,1845,ATM RIM GEN DASHKESEN ARAZ MARKET,ATM,"Daşkəsən, Nizami küçəsi, market",40.523353001815735,46.08261776290432,,False,,,,,,,https://images.ctfassets.net/rckhx7d9app2/yMykl05DNTpli0HXiuj4y/093b7d35738ea290c736d4e14588da47/WhatsApp_Image_2025-01-19_at_11.44.50__1_.jpeg
1ha9oqOrvV0nGoXS3q5QNS,2085,ATM GEDEBEY BRANCH 2,ATM,"Gədəbəy şəhəri, H.Əliyev pr 2A (ABB Gədəbəy filialı)",40.576428,45.808638,,False,,,,,,,https://images.ctfassets.net/rckhx7d9app2/GQMwbFA3zCzEN2y0jpmqi/5d4e727bd422815cf726ef1ae7cb0f0a/WhatsApp_Image_2025-01-18_at_15.01.35__1_.jpeg
2op0bvGgFcxzbWnx1VMuJk,244,ATM QAZAX BAZARSTORE,ATM,"Qazax, H.ƏLİYEV prospekti (Bazarstore)",41.096981,45.377598,,False,,,,,,,https://images.ctfassets.net/rckhx7d9app2/5wukTfRnCkKkwQ5fXMIEbt/574bfaff9df4a353ce7499f781410461/WhatsApp_Image_2025-01-15_at_12.46.07.jpeg
626biFfBvqBO4qBoyF7xRn,601,ATM GADABAY BRANCH 1,ATM,"Gədəbəy şəhəri, H.Əliyev pr 2A (ABB Gədəbəy filialı)",40.576428,45.808638,,False,,,,,,,https://images.ctfassets.net/rckhx7d9app2/IDJikxxivvemh3HpFq8A3/a90384c616eef2628cec7885da74e6f4/WhatsApp_Image_2025-01-18_at_15.01.30.jpeg
42RsKkASt2RrkFp5yl6HDU,2403,ATM GORANBOY BRANCH,ATM,"Goranboy, H.Əliyev prospekti 21 (ABB Goranboy filialı)",40.60853197530942,46.789924060492716,,True,True,,,,,,https://images.ctfassets.net/rckhx7d9app2/6YUQnt8hFj9ePMeXmhSuCN/5e6bfbdca62089792a727a44d3acc9ce/WhatsApp_Image_2025-01-18_at_10.27.40.jpeg
1rBoFGWt2VWsyOGYIiCV0W,2667,ATM RIM GEN SAMUX BRANCH-1,ATM,"Samux , Nəbiagalı qəsəbəsi, H.Əliyev prospekti, 134 (ABB Samux filialı)",40.76619506836712,46.40602189588147,,True,False,,,,,,https://images.ctfassets.net/rckhx7d9app2/1wCjLLxbS7flFNIqjaztrT/ece1c708f3c5ea2574c7c253237bf991/WhatsApp_Image_2025-01-19_at_09.00.03.jpeg
3HOsPQroz0GdENk3Fxjnsw,2668,ATM RIM GEN SAMUX BRANCH-2,ATM,"Samux , Nəbiagalı qəsəbəsi, H.Əliyev prospekti, 134 (ABB Samux filialı)",40.76619506836712,46.40602189588147,,True,True,,,,,,https://images.ctfassets.net/rckhx7d9app2/7B10CP6khnVYTIw4f6jFIb/58b05261b03aae8744bb50578cd42e8f/WhatsApp_Image_2025-01-19_at_09.00.08.jpeg
5gjEmVLrJaOVsMlZXgFNJO,151,ATM RIM SHR CALILABAD OBA M.,ATM,"Cəlilabad, H.Əliyev k., (Oba market)",39.215229,48.525204,,False,,,,,,,https://images.ctfassets.net/rckhx7d9app2/3jQpFglqwEXzkqzoX6kmfT/c93d4144a6fca4a255ad1ca22d15f8d6/WhatsApp_Image_2024-06-27_at_09.53.56.jpeg
4kA42RccAyw5xd7UjbKbBu,1026,ATM SH RİM ASTARA OBA MARKET,ATM,"Astara şəhəri, H.Əliyev pr. İlə Rafiq Məmmədov k ilə kəsişmə (Oba market)",38.45115167793276,48.873834196081965,,False,,,,,,,https://images.ctfassets.net/rckhx7d9app2/5a60LW78gCorF7kpCySTNx/ae2625f53da243deaf9ee98705c246dc/WhatsApp_Image_2024-05-25_at_18.47.39.jpeg
2JHg5dOdK5pTDTz2rnaA5W,2245,ATM CNV KITAB EVI 5,ATM,"Bakı, Səbail rayonu, Nigar Rəfibəyli küçəsi 29 (Kitab evi)",40.37154,49.8366995,,True,,,,,,,https://images.ctfassets.net/rckhx7d9app2/1WrM1mWxrdkjwI1Tvjd48F/aa718e9b0c53cb102e75e131f0a7a18a/WhatsApp_Image_2024-06-27_at_11.28.25__1_.jpeg
1TKB9PcFl60oysWz3nwRqu,7,ATM CNV SARABSKI PLAZA,ATM,"Nəsimi rayonu, Hüseynqulu Sarabski küçəsi  137",40.388167337853666,49.84114986969028,,False,,,,,,,
5LqYsNjqI8HNRwqysTdSQ4,2578,ATM CNV HOVSAN MIDA BAZARSTORE,ATM,"Bakı şəhəri, Suraxanı rayonu, Hövsan qəsəbəsi Zığ şossesi Hövsan Mida 1 (Bazarstore Mida Hövsan)",40.379704852597996,50.07177119102536,,True,,,24/7,,,937,https://images.ctfassets.net/rckhx7d9app2/0109LhZTkVDxYBrGz8fm7N/b6f23cc17eb541bcc78fad20846c1c97/012fe063-f701-4a79-bc9c-a08e341c7d39.jpg
5R6bvvqSqGLVY2CHzMHcmV,2372,ATM CNV ARAZ KAKTUS YASAMAL,ATM,"Bakı, Yasamal rayonu, Şərifzadə 33 (Araz kaktus)",40.37362952348279,49.8055567576982,,True,,,,,,,https://images.ctfassets.net/rckhx7d9app2/79n7IxRkTCO6VGYp0XjaUI/e247f6f81b8b424e1bb1a7a6fc9ba95d/WhatsApp_Image_2024-05-14_at_16.12.24.jpeg
4CfjnpHQLpm4VqZVH17btn,2645,ATM RIM XIR SUMGAYIT UCUZ 9 MKR,ATM,"Sumqayıt, 9 mkr (Ucuz market)",40.57091893679476,49.6782934931015,,True,,,,,,,
5CZndyAu6cvNg71cVJ6m8W,2810,ATM CNV BADAMDAR BOLMART 2,ATM,"Bakı, Səbail rayonu, Badamdar qəsəbəsi, Abbasqulu Abbaszadə küç 61 (Bolmart Badamdar 2)",40.35434259642983,49.81694321406016,,True,,,,,,,
Sdy3cYdVCeS8CKjlEA18o,237,ATM SBC RISH MASHT GULCHULUK OBA,ATM,"Bakı, Sabunçu rayonu, Maştaqa qəsəbəsi, Azər Səlimov küç. (Oba Maştağa - Gülçülük)",40.50137108595434,49.99452593736522,,False,,,,,,,https://images.ctfassets.net/rckhx7d9app2/6w7mpPQC7fOXYUIWGW90x6/be0abef912acf902a8c39adca9665cec/WhatsApp_Image_2025-06-11_at_10.20.25.jpeg
5kxuTAYaD0gBaZDsCigcPb,2795,ATM CNV ABB JAFAR JABBARLI BR 1,ATM,"Bakı, Yasamal rayonu, Cəfər Cabbarlı 40C (ABB Cəfər Cabbarlı filialı)",40.38464267873906,49.82874264626566,,True,,,,,,,
6kvHr3zvAeYAA8Itwat8rx,1831,ATM RIM XIR ASHAGI GUZDEK ARAZ,ATM,"Abşeron rayonu, Aşağı Güzdək qəsəbəsi (Araz Aşağı Güzdək)",40.46156111138526,49.6617113877083,,False,,,,,,,https://images.ctfassets.net/rckhx7d9app2/6XKBvVywowMwZEKM6B4klo/71c3670aceb79a7ffe2c7bd37e34c308/WhatsApp_Image_2024-05-15_at_13.29.21.jpeg
7puSKOfDqvwqe67r5stYAv,2820,ATM SBC RISH BAZARSTORE GARAYEV,ATM,"Bakı, Nizami rayonu Tofiq Abbasov küçəsi 46 (Bazarstore Qarayev)",40.419808405303385,49.92922976045125,,True,,,,,,,
4BkJDGYaM49RPeVZn8V3a6,2814,ATM CNV TAMSTORE 3 MKR DAIRE,ATM,"Bakı, Nəsimi rayonu, Məmmədcəfər Cəfərov küçəsi (Tamstore Nəsimi)",40.40777211886234,49.812247069682925,,True,,,,,,,
2d5SKZqiS9hJugZZwtwDkC,2796,ATM CNV ABB JAFAR JABBARLI BR 2,ATM,"Bakı, Yasamal rayonu, Cəfər Cabbarlı 40C (ABB Cəfər Cabbarlı filialı)",40.38464267873906,49.82874264626566,,True,,,,,,,
37vHVJW5kBeOyw9F8Fo1qn,2205,ATM CNV ASAN KOMUNNAL 3,ATM,"Bakı, Nizami rayonu, Tofiq Abbasov küçəsi, 2442-ci məhəllə, ev 120, 122, 124 (3 saylı ASAN Kommunal)",40.41802413578651,49.93529559608197,,True,,,,,,,
3A7l0JUZrmO5j2IjUxlcM8,2226,ATM RIM XIR MUSHVIG RAHAT,ATM,"Bakı, Qaradağ rayonu, Müşviqabad qəsəbəsi, Bakı-Şamaxı yolu (Rahat market)",40.469966368914946,49.62674305242524,,True,,,,,,,
36lPwyrlZcaB3HunFDWwli,2815,ATM SBC RISH ABB NEFTCHILER BR,ATM,"Bakı, Nizami rayonu, Qara Qarayev pr 61C (ABB Neftçilər filialı)",40.41162062158779,49.94298596981194,,True,,,,,,,
6p6aTrdypNsgaMD6OttxRH,283,ATM RIM SHR LERIK OBA,ATM,"Lerik, İsmayıl Yaqubov küçəsi (Oba market)",38.7713032637467,48.420164802598414,,False,,,,,,,https://images.ctfassets.net/rckhx7d9app2/63zkmtlRoUzyyqqYDIuyuF/559d17876f7c47ab6151d46adee2bc20/WhatsApp_Image_2024-06-28_at_15.53.25__1_.jpeg
6Q57b0RuE9FOhUqMbfZQkl,379,ATM RIM SHR CALILABAD BAZARSTORE,ATM,"Cəlilabad, Heydər Əliyev pr (Cəlilabad Bazarstore)",39.20849174109933,48.493613315636935,,False,,,,,,,https://images.ctfassets.net/rckhx7d9app2/1pvxFq23vqHro8c5vONm4v/d0bf2648066f755ecf7c3f35a47746b3/WhatsApp_Image_2024-06-27_at_10.52.37.jpeg
6p3S7DxhWX9ptw1BSNa4GN,628,ATM RIM SHR LENKARAN SAGLASER,ATM,"Bakı şəhəri, Xətai rayonu, V.Tau küçəsi, (ASAN-6 Heydər Əliyev parkının yaxınlığı)",38.85652510403561,48.7482181314667,,False,,True,,,,,https://images.ctfassets.net/rckhx7d9app2/5kNvlzMMpcI8NK5QrFXoLn/58304d0818573ee6d9babd50048645e3/WhatsApp_Image_2024-06-28_at_12.59.23.jpeg
1NuF5rgnQRzTX0q6aNKpnc,948,ATM LANKARAN FAVORIT MARKET,ATM," Lənkəran rayonu, Şürük kəndi",38.69654083251953,48.81938171386719,,False,,,,,,,https://images.ctfassets.net/rckhx7d9app2/3FTBY5CrRjiCKLJ4yE9xPn/5432ac4db5076cad444a24a9c6263756/WhatsApp_Image_2024-06-28_at_13.55.13.jpeg
6kKvrJsP5ZKudBXDn8yR7Q,1119,ATM LANKARAN BAZARSTORE,ATM,"Lənkəran şəhəri, Nizami küçəsi, 21-ci məhəllə",38.759006,48.834747,,False,,,,,,,https://images.ctfassets.net/rckhx7d9app2/3vKEaFf3rZmBJFcNTPtvTy/03cced2f2809d102dca887c5c4378e5b/WhatsApp_Image_2024-06-28_at_11.21.20.jpeg
pYsKjid1haxxpk7KhyMf8,1120,ATM RIM SHR ASTARA GARDASHLAR,ATM,"Astara, H.Əliyev prospekti, 213 ( Qardaşlar market )",38.46456,48.872644,,False,,,,,,,https://images.ctfassets.net/rckhx7d9app2/8I9k6dei3IIZwlC0QhGXU/16d19e53a11a588eac3c8d7cc5cd1aa6/WhatsApp_Image_2024-05-26_at_11.14.43__2_.jpeg
1hojjGDG1nivccHIULCDRQ,1199,ATM CALILABAD GOYTEPE ASIMAN M.,ATM,"Cəlilabad rayonu, Göytəpə qəsəbəsi, Qurtuluş pr. 94 (""Asiman"" market)",39.11816586405542,48.59441838815821,,False,,,,,,,https://images.ctfassets.net/rckhx7d9app2/2RpzHk2UOS2a5O4jOjDD9B/714e1a7bcfb9ee0a1d6d4cde8187ae6e/WhatsApp_Image_2024-06-27_at_11.49.47.jpeg
6drqQRwXbZAflLYa2cLhPH,1200,ATM RIM SHR CALILABAD MARKET,ATM,"Cəlilabad şəhəri, Mirzəli Hüseynzadə küç. 1 (Market)",39.21107960837261,48.50614510786339,online,False,True,,,,,,https://images.ctfassets.net/rckhx7d9app2/4Il2ltDlaBkbqC4hqZyLQj/2b5651dcb8ff3c811e42893650c553f2/WhatsApp_Image_2024-06-27_at_10.36.42.jpeg
49l7mjQHnrYfYuOdOXQE2A,1299,ATM LANKARAN LIMAN PIBON MARKET,ATM,"Lənkəran şəhəri, Liman qəsəbəsi, Teymur Rəcəbov küç. 1 (Pibon Market)",38.877864837646484,48.80789566040039,,False,,,,,,,https://images.ctfassets.net/rckhx7d9app2/6MyCJyIumIDclWzoX0g1nt/6ca96cc5dbae1b4bb8579e0ece2f15aa/WhatsApp_Image_2024-06-28_at_12.27.42__1_.jpeg
6mA0erTYHRfljDa76Ia7fa,1880,ATM RIM SHR LANKARAN MDM,ATM,"Lənkaran şəhəri, H.Əliyev prospekti, 303, Müalicə Diaqnostika Mərkəzi",38.75881872143137,48.83927248230348,,False,True,,,,,,https://images.ctfassets.net/rckhx7d9app2/MKOkGN8MGMMawKszNIvlb/169a89b84487be7aba9ebcbdfefcb5f1/WhatsApp_Image_2024-06-28_at_11.56.39.jpeg
35Iu8XNekIR5qTuzMGL0Pe,2022,ATM LANKARAN MERKEZI XESTEXANA,ATM,"Lənkəran şəhəri, Nizami 67 küçəsi ( Mərkəzi xəstəxananın ərazisi )",38.75902994400665,48.839270827122306,,False,,,,,,,https://images.ctfassets.net/rckhx7d9app2/4WoExtMnme4hfHFBOUqciV/82119284aeb45924fb09700def029e10/2022.jpeg
27YGJQYRoOaD1wzU0mH8ln,2076,ATM RIM SHR CALILABAD OBA M.,ATM,Cəlilabad OBA market,39.26638016949251,48.5023440349456,,False,,,,,,,https://images.ctfassets.net/rckhx7d9app2/RNDARsw35MQ0Ljv1Whocd/7cca8c663db5aa252014f4bbc50f8a15/WhatsApp_Image_2024-06-27_at_10.09.01.jpeg
5YuhGgd16KHneQrHa0X416,6,ATM USD CNV NASIMI BAZAR BAZARSTORE,ATM,"Bakı ş, Nərimaonov rayonu, A.A.Mirqasımov 61b (Bazarstore Nəsimi)",40.396078,49.843044,,False,,,,,,,https://images.ctfassets.net/rckhx7d9app2/1XDiouEIHCgyxDJVMiq0RC/478333cb783603b67290a5772f7d86d0/WhatsApp_Image_2024-08-07_at_11.32.28.jpeg
2biFhMMwvByNLHNIm4L3cF,79,"ATM CCS, BAKI ELEKTRIK SEBEKE",ATM,"Bakı, Nərimanov rayonu, Kazımzadə küçəsi 20 (""Azərişıq"" Baş İdarə)",40.389364,49.850059,,False,,,,,,,https://images.ctfassets.net/rckhx7d9app2/1v3CCOIlsFnZjDqNrDOFwt/a3b3957da5ccce880427d2b748d66749/WhatsApp_Image_2024-08-08_at_14.22.51.jpeg
1Za2WPfmaRubipL8BBcPXU,1385,ATM RIM SHR SALYAN TAM STORE,ATM,"Salyan rayonu Bakı-Astara şossesi, 132-ci km",39.580983907052264,48.97000118755081,,False,,,,,,,
VSvTdvMh7p7ljYlSfoUdW,2297,ATM RIM XIR BEYNALXALQ AVTO VAGZAL,ATM,"Baki şəhəri, Moskva prospekti,  Baki Beynəlxalq Avtovağzal Kompleksi ",40.418533,49.797843,,True,True,,,,,,https://images.ctfassets.net/rckhx7d9app2/235NmeNDaQDSTUM07fv1mD/582321abbe98b9ec8b6e1d964e8f32c6/WhatsApp_Image_2024-10-19_at_11.05.26.jpeg
59btUCpQLpAFeejtrpbWFR,2306,ATM CNV BRAVO OAZIS NR,ATM,"Bakı ş. Binəqədi rayonu, Şövkət Məmmədova küçəsi 2 (Bravo OAZİS)",40.419644,49.846714,,True,,,,,,,https://images.ctfassets.net/rckhx7d9app2/1NU8zTL7zvrsNuLvfxPziE/7a22088bb66a7dae20179c0af25f0447/WhatsApp_Image_2024-08-30_at_16.49.42.jpeg
1zAS2LOE1zPoM87lr8ovPC,2323,ATM CNV BINAGADI BRANCH WR,ATM,"Bakı, Binəqədi r., S.S. Axundov 42 (ABB Binəqədi filialı)",40.42537,49.842855,,True,,,,,,,https://images.ctfassets.net/rckhx7d9app2/7p5F0XIXobjn9soyyneLyy/829166aedd6a9fdc6dc9d2cfdda73818/WhatsApp_Image_2024-08-31_at_09.50.24.jpeg
4OF48DCbDTt9RuRE6O3fSw,2402,ATM CNV NEPTUN BINAGADI  WR,ATM,"Bakı, Xırdalan - Binəqədi şosesi, Respublika Dövlət Yol Polisi idarəsinin yanı. (Neptun Hipermarket)",40.447821,49.777402,,True,,,,,,,https://images.ctfassets.net/rckhx7d9app2/7BYYtxiRfJckxk6HlEUkwX/ff0323e7812743b24cc5f1349ed145be/WhatsApp_Image_2024-10-04_at_16.02.13.jpeg
132FagbBqibffqv8yYKj9x,2406,ATM CNV BAKU STEEL COMPANY WR,ATM,"Bakı şəhəri, Dərnəgül şossesi, Mir-Cəlal küç. 15 (Baku Steel company)",40.42807100669327,49.889187835785016,,True,,,,,,,https://images.ctfassets.net/rckhx7d9app2/7jMoHNxB8IlebZJ1S0h0dr/d0328848fc99aa9627b3fa0cb17ae905/WhatsApp_Image_2025-01-22_at_13.02.50.jpeg
67pvLYMRH4WXouJVwVuaML,2424,ATM CNV AZERTAC AZADLIG,ATM,"Bakı ş, Binəqədi rayonu, Ağasadıx Gəraybəyli k. 63 (AzərTAC Azərbaycan dövlət informasiya agentliyi)",40.418589,49.847733,,True,,,,,,,https://images.ctfassets.net/rckhx7d9app2/4eNCagriBHhaPaXu9VYU5e/ba7784c1b7ea22c9f38a62896b3d3026/WhatsApp_Image_2024-08-30_at_16.31.10.jpeg
7shmkJPT3VQgkad4aEQ0AP,2484,ATM CNV BINAGADI BRANCH 2 GRG,ATM,"Bakı, Binəqədi r., S.S. Axundov 42 (ABB Binəqədi filialı )",40.42537,49.842855,,True,True,,,,,,https://images.ctfassets.net/rckhx7d9app2/375Qgxk4EKdlEA9t8YDODy/ff46460f116d1389803f0360a422e1b5/WhatsApp_Image_2024-08-31_at_09.50.24.jpeg
5EOVyXhGASSjwiRM19yFBc,2548,ATM RIM XIR BILACARI OBA ,ATM,"Bakı, Binəqədi rayonu,Biləcəri qəsəbəsi (Oba market)",40.422045,49.798869,,True,,,24 Hours,,,937,https://images.ctfassets.net/rckhx7d9app2/rEJFrgOrI1ta1iwBYwKM6/0c3cc5229c5e865ae53bd7598758ba37/WhatsApp_Image_2024-10-19_at_10.26.18.jpeg
mxJ18FT60jH9oe2ZCWkx6,69,ATM RIM GENCE MAXI MARKET,ATM,"Gəncə ş., H.Əliyev pr. 44A, ""Maxi market""",40.705671,46.366488,,False,True,,,,,,https://images.ctfassets.net/rckhx7d9app2/5hgYF9kkCzYE7fQvBbQpFA/686f2b8da67ce9110f347209f9647c86/WhatsApp_Image_2024-12-24_at_19.21.40.jpeg
56pcJiNhKhNTFJpKks5YNg,75,ATM GEN MAXI MARKET,ATM,"Gəncə şəhəri, Maxi market",40.67081847684641,46.37643392091075,,False,,,,,,,https://images.ctfassets.net/rckhx7d9app2/1bNaXG0ThmUFrKwwfGgZvX/8ee8f654cf48e1d9cc94924c23e66ece/WhatsApp_Image_2024-12-26_at_15.04.55.jpeg
3iFbRY5uzT6UCZJZAEJdp0,116,ATM GENCE SEVIMLI M. GULUST,ATM,"Göygöl rayonu, Qızıl qaya qəsəbəsi Gəncə Kəlbəcər yolu M.Ş.Vazeh küç.64 (""Sevimli"" market)",40.639995,46.33905,,False,,,,,,,https://images.ctfassets.net/rckhx7d9app2/1lPMsvB9i88BnzAm6uVyZo/9b8bba5feafb80ac699d14fe621accca/WhatsApp_Image_2024-12-26_at_09.14.09.jpeg
4HU0syMb8ZoFXKqSziecuB,203,ATM GENCE OBA MARKET ,ATM,"Gəncə, Təbriz küçəsi (Oba Market)",40.67293189794603,46.34225743277774,,True,True,True,,,,,https://images.ctfassets.net/rckhx7d9app2/6c711kNepvu3P67wJR7EzR/4030cc5ef1a132378ddca1672365cd35/WhatsApp_Image_2024-12-26_at_08.13.23.jpeg
4VXN1dQ8qSlstPW972x7Mi,410,ATM GENCE GULLER MARKET,ATM,"Gəncə, Atatürk prospekti , 261",40.696967,46.37495,,False,,,,,,,https://images.ctfassets.net/rckhx7d9app2/61jlLqMbmjckebn2nSKc38/5683f1ed5af08fabf722b12f6555a8aa/WhatsApp_Image_2024-12-26_at_11.01.57.jpeg
2r2YsY1NlohZFc8aKPTwTY,437,ATM GENCE MEQA MARKET,ATM,Ş.İ.Xətai pr. Ev 97(MEQA market),40.697332,46.357009,,False,,,,,,,https://images.ctfassets.net/rckhx7d9app2/49igxBGSdsUSSXjV8RsbIR/b98719a340640ee8e24ad0317c8fa9ba/WhatsApp_Image_2024-12-26_at_11.19.54.jpeg
2g8nkKUr3BYg3UiSq9D3ys,503,ATM YENI GENCE OBA MARKET,ATM,"Gəncə, Yeni Gəncə qəsəbəsi Oba market",40.660912,46.34042,,False,,,,,,,https://images.ctfassets.net/rckhx7d9app2/22Bbol8SQkP6tWnW2gmtUv/bef45f2e048ceaa61bc9d63a16343aa9/WhatsApp_Image_2024-12-26_at_08.23.12.jpeg
4yarSIrzfhoDhthCGyElIF,549,ATM GENCE OBA M. AZERBAYCAN K. ,ATM,"Gəncə, Azərbaycan K. Dongə 3 Ev3 (Oba market)",40.715510354612526,46.36919808454821,,False,,,,,,,https://images.ctfassets.net/rckhx7d9app2/0S8KGCX6z7yyhnNUqB7kZ/333f1e4c9b9eab867efecab98ad1d6d1/WhatsApp_Image_2024-12-24_at_17.29.09.jpeg
3wmlR2hfP4MLyISLP8FAoT,562,ATM GENCE OBA MARKET SEVINC Q.,ATM,"Gəncə, Məhsəti qəs.",40.707677,46.333215,,False,,,,,,,https://images.ctfassets.net/rckhx7d9app2/6Lzy6NQ9QBS3J6T0j04aEu/880c417e33c3aac02b8a32d5dfe2cb34/WhatsApp_Image_2024-12-24_at_16.51.55.jpeg
3SWaNSKwpW3p52JJM0zNH9,563,ATM GENCE OBA MARKET HUSEYNLI 2,ATM,Gəncə şəh.Nizami rayonu Qəmbər Hüseyinli küç.2,40.682654152203234,46.355966852856284,,False,,,,,,,https://images.ctfassets.net/rckhx7d9app2/2sLu3g8Hgr5kjlFrMUAAhO/148baf065dd0872604fa245e11c0614a/WhatsApp_Image_2024-12-26_at_09.47.54.jpeg
4jX7k9Hw1TJBEipFHEsBHH,575,ATM GENCE  Beynəlxalq Xəstəxana,ATM,"Gəncə, Sah İsmayil xetai küçəsi ",40.69490799903645,46.36624591570782,,False,,,,,,,https://images.ctfassets.net/rckhx7d9app2/6nBqehBplGTFJyBg1o5MrZ/d44522e552b675b9046b6933db107cfa/575__2_.jpeg
3q9f0jHYwDqnIloVm7tkiW,613,ATM GENCE ALIMINIUMCULAR ZAVOD,ATM,"Gəncə ş., Ş.İ. Xətai pr. 84",40.686575507383694,46.386988604846174,,False,,,,,,,https://images.ctfassets.net/rckhx7d9app2/5JxhnV0VgXc3SalaCxsJsd/c25bfb629d91e398fcb2d4c1c5d38f64/WhatsApp_Image_2024-12-24_at_11.05.44.jpeg
7io3Zsrd7cfRkXuXlyV9Y0,620,ATM RIM GEN YENI GENCE EMİNE MARKET,ATM,"Gəncə, Yeni Gəncə qəsəbəsi, Mehmandarov küç. (Əminə market)",40.686484373930156,46.334606744487175,,False,,,,,,,https://images.ctfassets.net/rckhx7d9app2/19cbLSSbgdbYQU0tcMAB39/1f47c6693f170d69da1ea1610a2b6105/WhatsApp_Image_2024-12-26_at_14.04.42.jpeg
4VBfQTVTgpDpRGrVlQQfnu,623,ATM GENCE APTEK ELESGER KUC.,ATM,"Gəncə, Aşıq Ələsgər 31",40.65614147037462,46.367216857759935,,False,,,,,,,https://images.ctfassets.net/rckhx7d9app2/3488uj5PWQ8bNyyL4TJhAp/bb7594f5f2d57ac527467066cc1168e2/WhatsApp_Image_2024-12-26_at_08.43.46.jpeg
4dLmvqwo1tkwZH7w5nrxNQ,667,ATM RIM GAN AZERALLUMINIUM MMC,ATM,"Gəncə, ""Detal Alüminiy"" zavodu",40.68655176009785,46.42680254923436,,False,,,,,,,https://images.ctfassets.net/rckhx7d9app2/4Phr1qUcgoD5nGXCUFshNW/b70d578794be00509672aa083ecae606/WhatsApp_Image_2025-03-14_at_09.44.09.jpeg
1WHWZgKzuLuMl0208Z0xuc,758,ATM GENCE ARAZ M MEHMANDAROV K.,ATM,"Gəncə, Mehmandarov küçəsi (Araz market)",40.674658,46.33437,,False,,,,,,,https://images.ctfassets.net/rckhx7d9app2/4579DauVT4fkGnLybrxkY8/732074ee77f8bbf3781397971dfdc7f8/WhatsApp_Image_2024-12-26_at_13.35.28.jpeg
4W6dSaBItLvrb1BAp0kogA,1041,ATM GENCE DELFIN MARKET,ATM,Gəncə ş. Pərviz Səmədov 12 (Delfin market),40.679356,46.350109,,False,,,,,,,https://images.ctfassets.net/rckhx7d9app2/119aWdZdgfzoSrzUSI6NJ5/11c9155e71a30040441cac9e6d93cb14/WhatsApp_Image_2024-12-26_at_12.49.17.jpeg
4NzulomgEMypYlSEGAdp8P,1042,ATM GENCE FAMA MARKET,ATM,"Gəncə ş., FAMA market",40.71877375410452,46.35380144423876,,False,,,,,,,https://images.ctfassets.net/rckhx7d9app2/7yyoU9uzrsQgGLJxtAwcLI/725f89a27c80b16a2addd38b4f440385/WhatsApp_Image_2024-12-26_at_16.02.58.jpeg
4gRGIrhQoneXLfwvvG4lOY,1707,ATM GENCE HOTEL,ATM,"Gəncə, Ş.İ.Xətai prospekti 155 (""Gəncə"" mehmanxanası)",40.67983472562637,46.3608138940871,,False,,,,,,,https://images.ctfassets.net/rckhx7d9app2/32IvAQFl7HX43LMgNhLm5w/cae5de88d6e7f27d52c4c077b50f3f4b/WhatsApp_Image_2024-12-25_at_19.48.18.jpeg
6nOTFO8fLYEgicdjPr294C,1907,ATM GENCE KEPEZ MECBURI KOCKUN Q.,ATM,"Gəncə şəhəri, Kəpəz məcburi köçkünlər qəsəbəsi, ""Hacıməlik"" 600 ( mağaza )",40.66543078042121,46.45306484976036,,False,,,,,,,https://images.ctfassets.net/rckhx7d9app2/79cyAsWwW4aWWLebUxMUVX/5a3435307d01d74d28b5f1b8189b6ee3/WhatsApp_Image_2024-12-26_at_18.16.19.jpeg
6kYSPvrSMVdSPCPK0JiVyz,1915,ATM GENCE NUR MARKET,ATM,"Gence, Sadilli qes., mehelle e-3 sahe 19 (“Nur” market)",40.708566314997626,46.35564092192582,,False,,,,,,,https://images.ctfassets.net/rckhx7d9app2/60YaYNA8knNHq4SLmG1GNi/23fcde9998355a1cae9b68e9466bcf2f/WhatsApp_Image_2024-12-26_at_12.30.35.jpeg
7zDHkLx3EwQRa7laLZpZaM,1942,ATM GENCE BAZARSTORE NARIMANOV PR.,ATM,GANCA Nəriman Nərimanov pr,40.67479,46.369978,,False,,,,,,,https://images.ctfassets.net/rckhx7d9app2/9wzjSVWcdg6DNVcvCeVGM/21179a58473378d8047dc1f5d7136350/WhatsApp_Image_2024-12-26_at_14.52.02.jpeg
7xTiGBipbQwoebVejPZVSR,2247,ATM GENCE BRANCH  2 NR,ATM,"Gəncə, Zərdabi küçəsi 210 (ABB-nın Gəncə filialı)",40.66800400108086,46.35405479929814,,True,,True,,,,,https://images.ctfassets.net/rckhx7d9app2/58oeF43qLUxXx7qAHg8Ppa/c3f31d0992b24113f14272938bd5ecd7/WhatsApp_Image_2024-12-26_at_08.10.49.jpeg
1FIwxBosAsUJupsJhzqFcZ,2282,ATM GENCE BAZARSTORE NR,ATM,Gəncə (Bazarstore),40.678947692703304,46.36589431940843,,True,,,,,,,https://images.ctfassets.net/rckhx7d9app2/2pUgItNXBK4JaO6mUX5XJF/e1a7fc1d216b34b204e1ef7062bde4d0/WhatsApp_Image_2024-12-26_at_16.38.40.jpeg
1ahYl1jXHal2qupBB5XGLK,2327,ATM GENCE GOLD AMINE MARKET WR,ATM,"Gəncə, Tağı Arani küç (Gold Əminə hipermarket)",40.6869,46.379686,,True,,,,,,,https://images.ctfassets.net/rckhx7d9app2/6NVj4AUTmfuipBMheh9rTQ/51a9b2c448273a3bd7e36edbb2db45d7/WhatsApp_Image_2024-12-24_at_11.51.12.jpeg
41iBrNAWTJRC3BA9FFSwdi,2327,ATM RIM GEN YENI GENCE OBA,ATM,"Gəncə, Yeni Gəncə, 2-ci mkr, 28 may (Oba market 36)",40.67271647423619,46.32463497902746,,True,,,,,,,https://images.ctfassets.net/rckhx7d9app2/74ZLySE4U68PFghaKcm6Hx/826a796cfd8847750dcbb384384291ae/WhatsApp_Image_2024-12-24_at_18.54.40.jpeg
5UPV3C27kuCumVQhxowEeA,2540,ATM GENCE ASAN XIDMET,ATM,"Gəncə, Ş.Xətai küç. 87 (Asan xidmət)",40.691684,46.367364,,True,True,,,,,,https://images.ctfassets.net/rckhx7d9app2/JPSrzxEZjUMXeNuDS1cfC/b6be2d3aaeecb49a47964626cd09b6ba/WhatsApp_Image_2024-12-26_at_15.33.27.jpeg
10nQoWEFHL9WyJ99fl0fJn,2592,ATM GENCE AIRPORT DN,ATM,"Gəncə, Beynəlxalq Hava limanı",40.738814,46.300235,,True,,,,,,,https://images.ctfassets.net/rckhx7d9app2/jzYNHXu0VNxdKTJkRIuXn/f85a604534b0ba4ef2327dd935f44f7d/WhatsApp_Image_2024-12-24_at_16.15.04.jpeg
2KibibXxMAY37e9cRGbvYU,2285,ATM CNV ARAZ M 7 MKR NR,ATM,Binəqədi r. 7 mkr Araz m.,40.428844,49.852414,,True,,,,,,,https://images.ctfassets.net/rckhx7d9app2/4qNYqBzt8LMalUoNFMJtkX/c0adbe21d650e94637ae0d7a919dee15/WhatsApp_Image_2025-04-30_at_14.50.58.jpeg
ZrCWW4MhiGAYZsKyRd8f6,469,ATM CNV MASHTAGA TAC MARKET,ATM,"Bakı, Sabunçu r-nu, Maştağa qəs., Əhmədağa əhmədov küçəsi 1  (Tac market)",40.529252,50.011019,,False,,,,,,,https://images.ctfassets.net/rckhx7d9app2/7CzrdVXNTJIXcoCxIsyL2w/7b6c84edbfd1baf5673b8823fbfacb08/f7d73332-665e-43e5-9c46-937941785011.jpg
5uZezeH2SWK0mBB0byMTqt,522,ATM CNV BALAXANI OBA MARKET,ATM,"Bakı, Sabunçu rayonu, Balaxanı qəsəbəsi,  (Oba market 177)",40.46035,49.918549,,False,,,,,,,https://images.ctfassets.net/rckhx7d9app2/4Csb5DSHt93K4t5yG0wPOc/7be7fe69faa1349c1492e2e53f9cf141/2c61dedc-2743-4791-806a-967be380eace.jpg
4sRUXWN1zG2nfnpbuQGn8W,730,ATM CNV ZABRAT ISTILIK KOMB OBA,ATM,"Bakı şəhəri, Sabunçu r-nu, Zabrat II qəs. İstilik kombinatı, ""Oba"" market",40.491643,49.944678,,False,,,,,,,https://images.ctfassets.net/rckhx7d9app2/7MHBYC8p003Hz1Wt2ODXGG/67605fd58071213e2b22be74a101de36/020dfe3d-11f3-4af7-af4d-8d88614f4e27.jpg
4462PP7wiScUDaqEzirJWN,802,ATM CNV NEPTUN NARDARAN,ATM,"Bakı, Sabunçu rayonu, Nardaran qəsəbəsi (Neptun supermarket)",40.5436976893416,49.986414848985625,,False,,,,,,,https://images.ctfassets.net/rckhx7d9app2/5QwJ51yUfZop4edSZl6B6d/921e9a2c870dc2dabb5721ea43d4072d/ebdb4658-3de1-4c08-b09e-d412a7d3296c.jpg
1u9mAusAxJKVJf91kpwYxj,306,ATM CNV BILGAH QOCALAR EVI,ATM,"Bakı, Sabunçu rayonu, Bilgəh qəsəbəsi, XX qurultay küç.,24",40.5651774,50.031049,,False,,,,,,,https://images.ctfassets.net/rckhx7d9app2/6HIrHLIGVn9xpnmNlNhfZH/0063f91f415232999b6ca513756e3ba3/111937a9-cfb3-474b-b06d-a3ea6c850191.jpg
1DFvpFN4GoBAqg0FFqMqGN,928,ATM CNV MASHTAGA  OBA MARKET (PARK),ATM,"Bakı ş, Sabunçu r., M. Şəfai 18 (Maştağa OBA market Pakın yaxınlığı)",40.532793,50.004612,,False,,,,,,,
4efRcZVpBcZdPXoLAhjUIz,979,ATM CNV ZABRAT OBA MARKET,ATM,"Sabunçu rayonu, Zabrat 1 qəs., R.Axundov 15 B (Oba market)",40.47518200469756,49.94492408373571,,False,,,,,,,https://images.ctfassets.net/rckhx7d9app2/1BEkbMXmUHcVqz1HMvyQ9h/feaf118d8aa9d8275438a7104abff7cd/93b67623-b302-4ae7-bd46-2c1051e26935.jpg
jOmFwigznFxJEDsajN8WW,1905,ATM CNV ZABRAT RAHAT MARKET ,ATM,"Sabunçu r., Zabrat qəsəbəsi (Rahat market)",40.465812,49.945362,,False,,,,,,,https://images.ctfassets.net/rckhx7d9app2/e3eUqyxX98neQD4AsniTL/73db332c68008991c5cd1c20bd701e44/a99fd61c-8324-43e4-ae54-292fd1a259f6.jpg
rfKwMme3mD5APDVCeTgIE,2077,ATM CNV MEHEMMEDI ARAZ MARKET ,ATM,"Abşeron r., Məhəmmədi kəndi",40.51144125659442,49.94148002305067,,False,,,,,,,https://images.ctfassets.net/rckhx7d9app2/3J9ao3uOy42HT3jgl1KG89/1c519147957c8214cb6c9a0181d72d00/06dd8e43-0a97-4c94-bd86-4802321e9f42.jpg
13A69rBb4xI8qxbwYi1SvD,2267,ATM CNV SEABREEZE HOTEL WR,ATM,"Bakı ş. Xəzər r. Nardaran qəs. (""SeaBreeze"" Hotel)",40.5916485582322,49.98583805577762,,True,,,,,,,
2Xoaf8uCRKOlGh82dZikp8,2307,ATM CNV BRAVO BAKIXANOV NR,ATM,"Bakı ş. Sabunçui r., Bakıxanov qəs. Ramiz Qəmbərov küç.2566-cı məhəllə",40.412404,49.954474,,True,,,,,,,https://images.ctfassets.net/rckhx7d9app2/6mAPTyq7wMJMfHUXpB7mfC/de8ae5e37576e92bc8e1044f5d33db8a/47ba86ea-038e-45b2-8763-298d3c294ab3.jpg
5z2LALQad5aWOZU3cPoT5G,2334,ATM CNV BAKIXANOV BOLMART WR,ATM,"Bakı ş. Sabunçu r., Bakıxanov qəs.  Muxtar Fətəliyev k. 1001 ",40.41846821963565,49.96585292301883,,True,,,,,,,https://images.ctfassets.net/rckhx7d9app2/kJ2Kd47Oci9nQR3s9Z07r/9072758072194c06894a08a5a13e9c76/010ce976-9616-4d3b-ba15-70b8be0eca53.jpg
4x5rYolyvoqHWrqiCZ3woL,2392,ATM CNV ARAZ MARKET MASHTAGA,ATM,"Bakı, Sabunçu rayonu, Maştağa qəsəbəsi",40.506841,49.975514,,True,,,,,,,
6YWOWBZT8CWt3QjpHU1i8l,2393,ATM CNV ZABRAT BOLMART WR,ATM,"Bakı ş. Sabunçu r., Zabrat qəs. Zabrat şosesi 112 (Bolmart Zabrat)",40.446807,49.934971,,True,,,,,,,
6lZCE84tCBsLzRDDJpKFqE,2517,ATM CNV ZABRAT OBA 1,ATM,"Bakı, Sabunçu rayonu, Zabrat 1, Babək  (OBA Market)",40.47147539684128,49.94734115694419,,True,True,,24 Hours,,,937,
1qZX1fTjQdX2f5KZUMZB4L,2665,ATM CNV SABUNCHU BRANCH WR,ATM,"Bakı, Sabunçu rayonu, Bakıxanov qəsəbəsi, Mehmandarov küç.26 ( Sabunçu filialı )",40.424814,49.959092,,True,True,True,,,,,https://images.ctfassets.net/rckhx7d9app2/3dNk5HKjqgP3MqG5AEvy4t/92b66bf3dfbeb3740e037e4775dac32c/7f2f1e39-34d9-4014-98a9-af7123d2e2c7.jpg
6mHD85GFiVhTQg79NZl5F5,2666,ATM CNV SABUNCHU BRANCH-3 WR,ATM,"Bakı, Sabunçu rayonu, Bakıxanov qəsəbəsi, Mehmandarov küç.26 (ABB Sabunçu filialı)",40.424814,49.959092,,True,True,,,,,,
6lHqEKaDZsCWXgCUolbGcu,2701,ATM SBC RISH BAKIXANOV SAHRAM 1,ATM,"Bakı şəh., Bakıxanov qəsəbəsi Nazim İsmayılov küç., 5 (Sərham-1 market)",40.430535,49.957662,,True,True,,,,,,
1jgjBoAFUUztp2pSjmxsfC,2702,ATM CNV SARHAM TM,ATM,"akı şəhəri, Sabunçu r-nu, Bakıxanov qəsəbəsi, Y.Əliyev küç. 00/37",40.436554,49.959343,,True,True,True,,,,,https://images.ctfassets.net/rckhx7d9app2/pYNCY4va6EbdQnaJyc8EN/f03f8d502ada3702d6de00995683c551/e584cf91-c741-477c-8f36-bf6f6bc10b3e.jpg
sw7079kttxvUGapK4NJ3g,2712,ATM CNV ZABRAT ARAZ ,ATM,"Bakı, Sabunçu rayonu, Zabrat qəsəbəsi, Nəsibə Zeynalova küçəsi (Araz Zabrat)",40.479220838654456,49.95455201399786,,True,True,True,,,,,
1tATplVXCEVukHAbVYblk8,2758,ATM CNV A-PLUS STORE BAKIXANOV ,ATM,"Bakı, Sabunçu r., Bakıxanov qəs., Sülh və Neftçilər küç. kəsişməsi (A plus store)",40.42174240141368,49.96990174653606,,False,,,,,,,
6mSWURkY6WEhPa5tLAOTIc,2766,ATM CNV ZABRAT AVROMART,ATM,"Sabunçu rayonu, Zabrat ŞTQ",40.491417,49.954422,,True,,,,,,,
3BtPpfKUXKCck0lVsAmlSm,2771,ATM SBC RISH BAZARSTORE AYGUN CITY,ATM,"Bakı, Sabunçu rayonu, Bakıxanov qəsəbəsi, Gənclik prospekti (Bazarstore Aygün City))",40.417634325045476,49.964286862637245,,True,True,,,,,,
4da1CuU6MbbttZsnptnWVN,52,ATM CNV KECID Z.BUNYADOV 11,ATM,"Bakı, Binəqədi rayonu, Z.Bünyadov prospekti 11 (Yerüstü keçid)",40.412184,49.840771,,False,,,,,,,
4afTnAo2I8RGDeSjWiRQve,57,ATM CNV ARAZ MARKET BINAGADI,ATM,"Bakı, Binəqədi rayonu, 2-ci mədən (""Araz"" market)",40.472185,49.834165,,False,,,,,,,
3Ue2ZkSZXxwFMDhVayApL0,118,ATM RIM XIR OBA RASULZADE Q.,ATM,"Bakı, Binəqədi rayonu, M.Ə.Rəsulzadə qəsəbəsi, Azadlıq pr. (Oba market - Binəqədi 19)",40.431985,49.842676,,False,,,,,,,
679ECJjck5Xnus7GGw7cm5,238,ATM CNV RAHAT MARKET AZADLIQ,ATM,"Bakı, Binəqədi rayonu, 8 mk-r, S.S.Axundov küçəsi, 3G (Rahat market) ",40.425752,49.843798,,False,,,,,,,
5vVE3DKSlcwrdVzWw9BuML,245,ATM CNV OBA MARKET 6 MKR,ATM,"Binəqədi rayonu, S.Məmmədov küç",40.42515,49.826468,,False,,,,,,,
3FEvqTu743RfSlMQ83vVNW,259,ATM RIM XIR ARAZ M. MERZI BINAGADI,ATM,"Bakı, Binəqədi rayonu, Binəqədi qəsəbəsi, Ramazanov küçəsi, 1 (""Araz"" market)",40.46598610774985,49.82946053568206,,False,,,,,,,
4QX648PGL1thUqzzMHvn8M,280,ATM CNV RAHAT M. MEHDIABAD,ATM,Binəqədi r. Mehdiabad 28 May küç.,40.495252,49.855148,,False,,,,,,,
2xGA34ESXL1J1KUAaUJLCs,346,ATM RIM XIR 28 MAY QESEBE OBA,ATM,"Bakı, Binəqədi rayonu, 28 may qəsəbəsi, Müşviq yolunun solunda (Oba market)",40.46175786074158,49.64295525047068,,False,True,True,,,,,
4xGRDB8fwoKfc4d134mdwG,631,ATM RIM XIR BOLMART 9 MKR,ATM,"Bakı, 9-cu mkr. Mir Cəlal küç. 72 (""Bolmart"" supermarketi)",40.421162,49.814681,,True,True,,,,,,
2QYzgyWlXj1CGivF8hXYdt,732,ATM RIM XIR OBA MUSHFIGABAD,ATM,"Bakı, Binəqədi rayonu, Müşviqabad qəsəbəsi (Oba market)",40.46761502581352,49.622689251742344,,False,,,,,,,
94Gso7LDLrqNQq8t70l77,840,ATM CNV GRANDMART 8 MKR,ATM,"Bakı, Binəqədi rayonu, C.Xəndan küçəsi 26 (""Grand"" supermarketi)",40.416279,49.833863,,False,,,,,,,
4HbUHVvb8us9jj7Q7bySfL,1077,ATM CNV RAHAT M.  XOCAHASAN ,ATM,"Bakı, Binəqədi rayonu, Xocəhəsən qəsəbəsi, (Rahat market)",40.41465012957297,49.76827137827392,,False,,,,,,,
3PxSQksQPlTnlTD613kWXE,1278,ATM CNV OBA 20 YANVAR IMPERIAL,ATM,"Bakı şəhəri, Yasamal rayonu, Asif Məhərrəmov küç. 1 (İmperial Şadlıq Sarayı Oba market)",40.41181733608381,49.80412415950264,,False,,,,,,,
6ug1K04fDQOBXHTuGMkHKI,1555,ATM CNV ARAZ  MARKET 7 MKR,ATM,"Bakı, Binəqədi rayonu, 7-ci mkr. S.S.Axundov 3C (Araz market) ",40.426657,49.849794,,False,,,,,,,
2trY15LHf40Vm25Jjp7Hru,1807,ATM CNV BIZIM MARKET 8 MKR,ATM,"Bakı şəhəri, Binəqədi r-nu, İ,Dadaşov küç., 60 (Bizim market)",40.413922,49.843966,,False,,,,,,,
6onesZz5RbsXnyH7vveE8u,2152,ATM RIM XIR SAFA STORE 9 MKR,ATM,"Bakı, Binəqədi rayonu, Mir Cəlal küçəsi,  9-cu mikrorayon (""Safa store"")",40.413839,49.803859,,False,,,,,,,
5ztjhlOspkOC3IKtAqyK9U,256,"ATM CNV KURDAXANI IL KOMPLEX, ",ATM,"Bakı, Sabunçu rayonu, Kürdaxanı qəsəbəsi, ""İl komplex"")",40.547473,49.911127,,False,,,,,,,
4dNWtc0QimMSHLV5Zg5S7t,183,ATM RIM OGUZ ZAQATALA MUXAX OBA,ATM,"Zaqatala, Muxax (Oba market)",41.56980370040245,46.70784354673063,,False,,,,,,,
7uDblg33zFcgsxXo4rYVjd,2788,ATM RIM YEV SHUSHA BRANCH,ATM,"Şuşa şəhəri, Gövhər ağa küçəsi, giriş nömrə 13 ünvanında (ABB Şuşa filialı)",39.76091782602176,46.752719002683264,,True,True,,,,,,
2AEVQzuQF1L4mcTPnRu7zM,664,ATM UCAR OBA MARKET,ATM,"Ucar , 20 Yanvar küçəsi (Oba market)",40.51431626263951,47.662187586476385,,False,,,,,,,
3vB0fVcGnBeqipVc9e5C9P,322,ATM NAKH SHARUR SIYAGUT BELEDIYYE,ATM,"Şərur rayonu, Siyaqut kəndi (Bələdiyyə)",39.53760519939376,45.023439384401705,,False,,,,,,,
6zjnR54AwsaclIFdpFCZG7,965,ATM NAKH SHARUR DEMIRCHI OBA,ATM,"Şərur rayonu, Dəmirçi kəndi (Oba market)",39.61349794468292,44.938207486858396,,False,True,False,,,,,
Md3OOaX1gJhS6W7EjiTG7,478,ATM NAKH NAXCHIVAN ALIABAD,ATM,Naxçıvan şəhəri Əliabad qəsəbəsi Döngə 14 küçəsi (Əliabad Icra nümayəndəliyi),39.225186290432454,45.39518181313562,,False,,,,,,,
6YyMSa3D5Z6HwSEBh4OvIw,2408,ATM NAKH BABEK CEHRI BELDIYYE,ATM,"Babək rayonu, Cəhri kəndi (Bələdiyyə)",39.34542816981244,45.415755408083555,,True,,,,,,,
1gxlB6a2N67hxwBLG7VeOK,963,ATM NAKH SHARUR MAHMUD BELEDIYYE,ATM,"Şərur, Mahmud kənd (Bələdiyyə)",39.5789341541285,45.02758510185324,,False,,,,,,,
57E6n6vSuP7JVG1Wmhkm6I,2165,ATM CNV ATM CNV BUZOVNA ARAZ 2,ATM,"Bakı şəhəri, Suraxanı rayonu, Əmircan qəsəbəsi, V.Balandin küçəsi 422 (ABB Suraxanı filialı)",40.519013213191066,50.09358754980459,,True,,True,,,,,
4JsPYJY7J6b2UCsvR3tTAA,1825,ATM TOVUZ DUZQIRIQ K. OBA M.,ATM,"Tovuz rayonu, Düzqırıxlı kəndi ( Oba market)",41.02219202546933,45.60752417517781,,False,,,,,,,
2M3jdLJbbdn7pRwHpwg7np,2784,"ATM CCS, GANJLAR IDMAN NAZIRLIYI",ATM,"Bakı, Nərimanov rayonu, Olimpiya küçəsi 4 (Azərbaycan Gənclər və İdman Nazirliyi)",40.39928231629415,49.85554704299165,,True,,,,,,,
4hTlfickexqEfoBfV1k3ni,2422,ATM NAKHCHIVAN TAMSTORE ,ATM,Naxçıvan şəhər.H.Əliyev prospekti təbriz küçəsi (Tamstore Naxçıvan),39.20910966313198,45.41052873385454,,True,,,,,,,
1XDAtOULLNixFoNwRCyVdT,261,ATM CNV DUBENDI OBA,ATM,"Bakı, Xəzər rayonu, Dübəndi qəsəbəsi Xaşaxuna bağlarında Qala-Pirallahı yolunun üzərində (Oba market)",40.42759606680879,50.209411468646266,,False,,True,,,,,
39OLWTGeCRvdaxz1XsRjxa,95,ATM RIM YEV MINGACHEVIR TAM STORE,ATM,"Mingəçevir şəhəri, M.Maqomayev küçəsi, 16/1 ( Tam store) - ",40.767274831573594,47.04593462764552,,False,True,,,,,,
1jUTtxlZCmju3DWxRcY069,647,ATM ZAQATALA DANACI K. MARKET,ATM,"Zaqatala, Zaqatala, Danaçı kəndi (market)",41.55140120752985,46.42157967586953,,False,,,,,,,https://images.ctfassets.net/rckhx7d9app2/49BowfhflRSMif7fRGRtD4/0bc4ad65ee5cb76d79c35a6c260db0ad/3b4e4819-12db-4827-8ae1-47398a25c43c.jpg
5yr49d7COpRCdPYJECv3aE,984,ATM RIM SHR SHIRVAN AL MARKET,ATM,"Şirvan ş., M. Rəsulzadə küç. (Al market)",39.9609411325437,48.94761917003134,,False,,,,,,937,
iUlh7W7QkrSL3WIoLwXUb,1522,ATM CNV SU IDMAN SARAYI,ATM,"Bakı, Səbail rayonu, Akademik Əhəd Yaqubov küçəsi  15 (Su idman sarayı) ",40.334945,49.83512,,False,True,,,,,,
5QyBrzp8ySAHNYd1A3CbbE,375,ATM CNV OBA MARKET SHAGAN QAS. ,ATM,"Bakı, Xəzər, Şağan Qəsəbəsi Zaqulba pr 22",40.48898453723892,50.11539742603674,,False,,,,,,,
10U33T5Gcy7xk6y7TMyhrH,344,ATM SBC RİSH SHAGAN OBA MARKET,ATM,"Bakı, Xəzər rayonu, Şağan qəsəbəsi, Nüsrət Məmmədov küç (Oba market)",40.492071848520766,50.12879028619451,,False,True,,,,,,
sldY7K9lImRT6caXAZr63,2779,ATM CNV BADAMDAR BOLMART,ATM,"Səbail rayonu, Badamdar qəsəbəsi, R.İsgəndərov küçəsi 4A",40.339497,49.805836,,True,True,,,,,,
1xtFGHkAl3APUOvahifVQ0,2778,ATM CNV SARAY ARAZ MARKET ,ATM,"Abşeron r., Bakı-Sumqayıt yolu,""Araz"" market (Saray DYP postun yanında)",40.523947,49.687323,,True,True,,,,,,
ZZWDuHoXMX7wtcE34PdHn,2262,ATM RIM QAZAX QAZAX BRANCH 1,ATM,"Qazax r., Sabir küçəsi 75 (ABB Qazax filialı)",41.089988,45.358857,,True,,True,,,,,
7nhJC63s5Jh5OI66oZ2p4V,2776,ATM CNV BRAVO AZURE ,ATM,"Bakı, Xətai, Afiyəddin Cəlilov küçəsi 69B (Bravo Azure)",40.3790014900691,49.8754725098839,,True,True,,,,,,
44Zn8iH3mre81V7RLHohUX,2777,ATM RIM YEV GOYCHAY STORE,ATM,"Göyçay şəhəri, Atatürk küç. 77 (Göyçay store)",40.65206674815902,47.74255267812655,,True,True,,,,,,
52aiw4ioW1ae5QJAa6aCWV,2759,ATM CNV SPAR MARKET DOSTLUQ K/T,ATM,"Baki şəh.,Nərimanov r-nu,Ceyhun Hacıbəyli küç.39, ""Spar"" market",40.39030628769046,49.84648598972087,,True,True,,,,,,
18auA7Erpt1Ofhpbb4KOIF,2496,ATM CNV 28 MALL 2 GRG,ATM,"Bakı şəhəri, Azadlıq prospekti ilə Füzuli küçəsinin kəsişməsi, "" 28 Mall ""  Ticarət mərkəzi",40.379039,49.846813,,True,True,,,,,,
3G9UQMKliL8qGYUhGKMgrR,2750,ATM CNV YASAMAL FILIALI 2,ATM,"Bakı, Yasamal rayonu, İnşaatçılar prospekti, 14, 533-cü məhəllə (ABB-nin Yasamal filialı)",40.37628723325431,49.81971925165021,,True,True,,,,,,
4J9ia3M22wg8AH6SClOnmI,2749,ATM CNV YASAMAL FILIALI 1,ATM,"Bakı, Yasamal rayonu, İnşaatçılar prospekti, 14, 533-cü məhəllə (ABB-nin Yasamal filialı)",40.37628723325431,49.81971925165021,,True,True,,,,,,
4FcsyFwpkva1t9nYImbOCO,762,ATM NAKHCHIVAN CULFA MERKEZİ XƏSTƏXANASI,ATM,Culfa Şəhər E.Nağıyev küçəsi Mərkəzi xəstəxanası,38.95506884945253,45.63440356353401,,False,,,,,,,
2ZWqHp4CQExuWh1ZpLBRrU,2762,ATM CNV AZERBAYCAN NESHRIYYATI,ATM,"Yasamal r., Mətbuat pr. (Nəşriyyat)",40.369403,49.810091,,True,,,,,,,
4tYA7ZBrNxc0CGaFAn0qbP,2746,ATM CNV C. HACIBEYLI ARAZ MARKET,ATM,"Baki, Nərimanov rayonu, C.Hacıbəyli küçəsi (Araz market)",40.38671457963181,49.84750409313501,online,True,,,,,,,
1Bh2f1fWjE2idL700r6ziz,2769,ATM RIM OGUZ ZAGATALA MALL,ATM,"Zaqatala r-nu, F.Əmirov küç.25, Zaqatala Mall ",41.62913923819951,46.63499351141896,,True,True,,,,,,
7wh7VxRSNvfGFYRh1Z1gq3,2772,ATM SBC RISH ARAZ QALA QES.,ATM,"Bakı, Xəzər rayonu, Qala qəsəbəsi Mərdəkan şossesi (Araz Qala)",40.46556755432104,50.13738244479429,,True,True,,,,,,
3WAEV9T2mWk3QEXgqzbXat,2773,ATM CNV APLUS XATAI Q.MAMMADOV 4 ,ATM," Bakı, Xətai r-nu, Qədir Məmmədov küçəsi, 4 (APLUS)",40.365718,49.944938,,True,True,,,,,,
7rj5CzrPdalu8tu0hLGDW7,2774,ATM XIR RIM HOKUMELI DAIR BAZARSTORE,ATM, Abşeron ray Höküməli qəs Bakı Şamaxı şossesi 100/6 (Bazarstore) ,40.44131784918866,49.74818651483471,,True,True,,,,,,
4ELqiFxaMgFxI9B8GNCP93,2775,ATM RIM XIR GRANDMART NOVKHANI,ATM,"Bakı ş. Binəqədi r-nu, Novxanı qəs. (Grandmart market)",40.54097,49.783317,,True,True,,,,,,
fhLw0i94ucQex0Cxje0SV,2024,ATM YEV MINGECHEVIR KOSMOS,ATM,"Mingəçevir şəh., İcra hakimiyyətinin yanı",40.76529704835239,47.053197288360586,,False,True,,,,,,
6VdxhEOF4gnYw0QJNV1Y8W,5,ATM RIM OGUZ ZAQ ALIABAD OBA,ATM,"Zaqatala r, Əliabad q., Yevlax-Zaqatala-Gürcüstan magistral yolunun 111KM-I OBA MARKET",41.49314095648941,46.62741411639404,,False,True,,,,,,
5K2RfKdvyPwBtUdVfYSP0x,2753,ATM SBC RISH TAM STORE N.TUSİ,ATM,"Bakı şəhəri, Xətai r-nu, N.Tusi küç. 2942 a, ""Rahat"" market",40.36685475388218,49.96246173743438,,True,True,,,,,,
7G7ex2DLRLFtb0wTVJIzKa,2608,"Bakı, Yasamal r. Cəfər Cabbarlı küçəsi 44 (Caspian Plaza)",ATM,"Bakı, Yasamal r. Cəfər Cabbarlı küçəsi 44 (Caspian Plaza)",40.385389,49.828897,,True,True,,,,,,
6xlScJrnhue5DLPLS4ceJT,2715,ATM CNV Y.GUNESHLI BAZARSTORE,ATM,"Suraxanı rayonu, Yeni Günəşli qəsəbəsi, V yaşayış sahəsi, 9B (Günəşli Bazarstore)",40.3796364,49.9805445,,True,True,,,,,,
3buN2cgVLKEP1x9Owasfqf,2601,ATM CNV XATAI ASAN 6,ATM,"Bakı şəhəri, Xətai rayonu, V.Tau küçəsi, (ASAN-6 Heydər Əliyev parkının yaxınlığı)",40.378209,49.955839,,True,True,,,,,,
2vstXJBGZm963pD59Kmies,2673,ATM CNV BAZARSTORE Y/Y,ATM,"Bakı, Yasamal r., Əsəd Əhmədov küç., 24B",40.393696,49.794576,,True,True,True,,,,,
VrjfpTJRG74WBqhf7NJ76,2725,ATM CNV RAHAT M. SERHEDCHI REC,ATM,"Bakı, Xətai r. Babək pr. ev 90 E2317-ci m. (Rahat ""Sərhədçi"")",40.394847,49.958643,,True,True,,,,,,
1sGn4XhTXbTB4mprph1ZW8,2662,ATM CNV OBA MARKET NIZAMI M/S ,ATM,"Bakı, Yasamal, Z.Əhmədbəyov 2",40.379515615888664,49.83175016592065,,True,True,True,,,,,
1sTINrOVqFstZTDsiTjAo2,2674,ATM CNV BAZARSTORE AZADLIG REC,ATM,"Bakı, Nərimanov rayonu, Azadlıq pr. Yusif Vəzir Çəmənzəminli 23 (Bazarstore Olimpik Star)",40.402387,49.835848,,True,True,,,,,,
5j8KTImrAhw21Y2X65Cj1k,2672,ATM MEGASTORE GUNESHLI,ATM,"Bakı şəhəri, Xətai r-nu, Günəşli qəs., İ.İsmayılov küç., 5 C, ",40.362782,49.96974,,True,True,True,,,,,
6lUwU5lIrkXUN2PpYtod3E,2659,ATM CNV BAZARSTORE XATAI,ATM,"Bakı, Xətai rayonu, Babək prospekti 1129 məhəllə",40.387924,49.86694,,True,True,True,,,,,
5kcqoH8dUK0Z0CYS12c29o,2700,"ATM CNV,QARACHUXUR ARAZ MARKET",ATM,"Bakı şəhəri,Suraxanı r-nu, Qaraçuxur qəsəbəsi, Yusif Eyvazov küç.2",40.393168,49.98171,,True,True,True,,,,,
i3wzWtw4u5h2jYvvfZQ86,2661,ATM CNV BIZIM MARKET 8 KM,ATM,"Bakı, Nizami rayonu, 2381-ci məhəllə Bəhruz Nuriyev küç. (Megastore)",40.403811,49.959784,,True,True,,,,,,
28NNMZM5SqcYHWYHANdLjv,2660,ATM CNV ARAZ M. 8 KM-2 NAZLI REC,ATM,"Bakı, Nizami r. Cəmşid Naxçıvani 90 (Araz market (Nazlı ş/e))",40.408286,49.958143,,True,True,,,,,,
40DhQFx5HdjQIFXFOxA8rO,2714,ATM CNV BRAVO TEBRIZ KUCHESI,ATM,"Bakı, Nərimanov rayonu, Təbriz küçəsi (Bravo Nərimonov Təbriz k.)",40.39292797623353,49.85793948495625,,True,True,,,,,,
eEnuOsPOyz1KEpVKChvGE,2699,ATM CNV BOLMART XALQLAR M/S,ATM,"Bakı ş., Nizami r. Q.Qarayev prospekti, ev 124-126",40.397263,49.953151,,True,True,True,,,,,
PstaTQ7L2hXPeQxkUD0dx,2716,ATM CNV GRANDMART ALMAZ PL ,ATM,"Bakı, Yasamal r., Həsən Məcidov küç., 14 (Almaz plaza Grandmart)",40.383561,49.809991,,True,True,,,,,,
rsDVZx4ssHCk2nt6WMZYX,2698,ATM CNV ARAZ PLANET S/E,ATM,Nizami rayonu Mehdi Abbasov küçəsi 4C,40.412667,49.933928,,True,True,True,,,,,
4hD1Qg0YEPpJBjcRv0K26y,2717,ATM CNV NEPTUN 28 M/S,ATM,"Bakı şəh., Nəsimi ray., Şəmsi Bədəlbəyli küçəsi (Neptun market)",40.37814582801456,49.846201001139846,,True,True,,,,,,
6uOVz2IkFIGPH6G2d3jduz,215,ATM IMISHLI AILEM MARKET,ATM,İmişli şəhəri N.Savalanov küçəsi (Ailəm market),39.860772,48.062889,,False,,,,,,,
2SOIvAGQvLkeA1G7SCSHVF,1767,ATM BALAKAN ARIFOGLU M.,ATM,"Balakən r., H.Əliyev pr. 98 ",41.70253953958725,46.4276518120216,,False,,,,,,,https://images.ctfassets.net/rckhx7d9app2/2W1pGcbRBZfDM33lFu9j4e/656a66ed4cd5c02483bdf44ef93c727f/381dd014-646e-4018-9886-645c421293bf.jpg
1XJHSktJeNIg6kp5m6s5oe,2283,ATM SHR RIM BILASUVAR BAZARSTORE,ATM,"Biləsuvar , H.Əliyev prospekti (Biləsuvar Bazarstore)",39.457662160979076,48.54312713897559,,True,True,,,,,,
2uupZlBKOUxUDHVNiqEc27,2743,ATM IMISHLI BRANCH-1,ATM,İmişli şəhəri H.Əliyev pr. 146 (ABB-nin İmişli filialı),39.8697496,48.0591736,,True,True,,,,,,https://images.ctfassets.net/rckhx7d9app2/4aAJ6zynXbzAGqXEUWT3LR/c4e1117a48d95a7ec39f050394774984/215-506.jpg
2I657X95pxst6GOmlHGLHr,2742,ATM IMISHLI BRANCH-2,ATM,İmişli şəhəri H.Əliyev pr. 146,39.8697496,48.0591736,,True,True,,,,,,
12X0aQSjXYq4h7cj0Ba3zs,2761,ATM RIM XIR BILECER BIN SHOS ARAZ,ATM,"Bakı, Binəqədi rayonu, Biləcəri, Binəqədi şosse (Araz market)",40.451236285912664,49.83039873737227,,True,True,,,,,,
1IBsOYXBtmKKi6faRh4dQy,2764,ATM CNV OBA XATAI MEDILAND,ATM,"Bakı, Xətai rayonu, Mehdi Mehdizadə küçəsi (Oba market)",40.381128,49.869159,,True,True,,,,,,
7jOdfNkkotthLQFJsyQInd,2763,ATM CNV 3 MKR OBA ECEMI,ATM,"Bakı şəhəri, Nəsimi rayonu, Hüseynbala Əliyev (Oba market) əcəmi m/s yaxınlığı",40.409972,49.819026,,True,False,,,,,,
4x7ZiMvcIO2GUbie2h6sAO,2765,ATM CNV ARAZ MARKET 20 SAHE,ATM,"Bakı, Səlyan şossesi 20-ci sahə",40.328854,49.818527,,True,True,,,,,,
2Rr6weTzITM1eWBvLr2NCt,2757,ATM CNV MELIORASIYA & SU TES.,ATM,"Yasama r-nu, Moskva pr.69a (Azərbaycan Meliorasiya və Su Təsərrüfatı ASC )",40.4062887,49.8059686,,True,True,,,,,,
3AEFdOEwA2BBNeELRTScfk,1353,"ATM CNV,FAVORIT MARKET,M/CALAL69",ATM,"Bakı, Binəqədi rayonu, Mir Cəlal küçəsi 59K 9-cu mikrorayon (Favorit - Supermarket)",40.418736,49.810984,,False,,,,,,,
DvoQc1cKu5SZUqnyGXZJc,230,ATM RIM GEN GEDEBEY BRANCH,ATM,"Gədəbəy şəhəri, H.Əliyev pr 2A (ABB Gədəbəy filialı)",40.576428,45.808638,,False,,,,,,,
5JDig36QaFgwfqN6PdSiGF,2400,ATM RIM YEV UCAR MEGA MARKET,ATM,Ucar r. Azərbaycan pr. (Mega market),40.505089324416296,47.658295254137954,,True,True,,,,,,
7BSfaHAyVTp0XgNRsuUUDG,2682,ATM UCAR BRANCH WR,ATM,"Ucar, Oğuz k. 44 (ABB Ucar filialı)",40.50972451981271,47.65591351253446,,True,True,,,,,,
6xwCbnyLme1okvrf7eTv6z,2683,ATM RIM YEV UCAR BRANCH-1,ATM,"Ucar, Oğuz k. 44 (ABB Ucar filialı)",40.509740833987124,47.655953745669684,,True,True,,,,,,
as46J8QC8wOLl0g84KkKu,2767,ATM CNV  NZS OBA MARKET,ATM,"Bakı, Nizami rayonu, Rəşid Bağırov küç., (Oba market)",40.386876837746215,49.90451568213553,,True,True,,,,,,
6sDzcz7sIepQlN16Vyt8NZ,2760,ATM CNV X.M. SAGLAM KOMPL BADAMDAR,ATM,"Bakı şəhəri, Səbail r-nu, Badamdar şossesi 31 (Xüsusi Müalicə Sağlamlıq Kompleksi)",40.3532548,49.810131,,True,True,,,,,,
7Mqa6BVjAazA2G9oTi3Tah,2756,ATM BALAKAN OBA MARKET,ATM,"Balakən ""Oba"" market",41.71960449605561,46.415280436658975,,True,,,,,,,
kMoeliiqXITdn8EsyAbfM,2265,ATM CNV CITY MALL,ATM,"Baki, Xatai rayonu, Suleyman Vezirov 28C/1 (CITY mall)",40.38960856532462,49.89149484784538,,True,True,,,,,,
iffSZK6kd1fty5rai7rw0,2636,ATM CNV ABB SEA BREZEE BRANCH-1,ATM,Bakı ş . Nardaran q. Sea Breeze otel,40.59155331154694,49.988084366782836,,True,,True,,,,,
2g7L2zpfKf5wQNmdVfBVKZ,1823,ATM OGUZ RIM DOST MARKET OGUZ,ATM,"Oğuz şəh., H. Əliyev küçəsi",41.06097043657572,47.46245211423123,online,False,,,,,,,
91ct8ZWdMo6PUQfzTXn6l,167,ATM OGUZ RIM DOST MARKET SINCAN,ATM,"Oğuz Rayonu, Sincan kəndi Dost Market",40.93771827870947,47.595773614357725,,False,,,,,,,
4eBRAdXYCuDQxAhBj1eG00,2755,ATM OGUZ BNRANCH,ATM,"Oğuz, H.Əliyev küçəsi 98 (ABB Oğuz filialı)",41.07513162361538,47.46630194724633,,True,,,,,,,
5bkjGVuwZCMJusmXqt1CmN,749,ATM RIM YEV ATM KURDAMIR SHINYAN,ATM,"Kürdəmir, Şilyan (Oba market)",40.328555,48.009921,,False,True,,,,,,
77mpSD2ssZOUkIyyGNoME4,2752,ATM RIM GEN DASHKESEN BRANCH,ATM,"Daşkəsən, H.Əliyev küçəsi 38 (ABB Daşkəsən filialı)",40.523939760706085,46.08170728310632,,True,True,,,,,,
281Qw1VxhUx2gPYdeg5lg,2684,ATM KURDAMIR BRANCH,ATM,H.Əliyev prospekti 14 (ABB-nin Kürdəmir filialı),40.345717,48.147349,,True,True,,,,,,https://images.ctfassets.net/rckhx7d9app2/5fpYf3dEIazHygAVUiOC0B/7271b2a5d6971b17cffbc718c80fe2a6/WhatsApp_Image_2023-08-23_at_15.25.42.jpeg
1j5MdaXK5uqu7lRTqsM1g1,405,ATM RIM XIR QARADAGH TAM STORE ,ATM,Qaradağ rayonu Sahil qəsəbəsi  Baku-Ələt yolu Tam store,40.24277936799141,49.59975622919212,online,False,,,,,,,
5JQkjRk908cGdYDcARZdE2,268,ATM OGUZ RIM SHEKI MARKHAL HOTEL,ATM,Şəki rayonu Kiş kəndi (Marxal Resort Palace),41.24463176111607,47.20208278358892,online,False,True,,,,,,
mQ2XF05kVpfHB8LzBq55v,1010,ATM RIM XIR SUMGAYIT VAGZALI ADY,ATM, Sumqayıt şəhəri Üzeyir Hacıbeyov küçəsi ilə Çerkaski küçəsinin kəsişməsi,40.56201558154463,49.68089589445708,online,False,,,,,,,
46qgL9UxXhAI4xDjyUDMol,2691,ATM AGSTAFA BRANCH-2,ATM,"Ağstafa , H.Əliyev küçəsi 50A (ABB Ağstafa filialı)",41.11190288509863,45.44086550772292,,True,True,True,,,,,
6tD7ONdQS4udiRTlqfMWoV,2690,ATM AGSTAFA BRANCH-1,ATM,"Ağstafa, Ağstafa , H.Əliyev küçəsi 50A (ABB Şəmkir filialının Ağstafa şöbəsi)",41.11190288509863,45.44086550772292,,True,True,True,,,,,
3lnU0tGkw1XwpgReX2rPuL,1282,ATM RIM GEN AGSTAFA AL MARKET,ATM,"Ağstafa şəhəri, H.Əliyev prospekti, 13",41.11478547873437,45.44700387289946,,False,True,True,,,,,
3zPxz3eEjycXvPnzJw9gkQ,2751,ATM XIR SUMGAYIT UCUZ MARKET,ATM,"Sumqayıt, 3-cü mikrorayon, Sülh küçəsi 19/33",40.585388259670104,49.66699611575244,,True,True,True,,,,,https://images.ctfassets.net/rckhx7d9app2/3L7mJAeOJ2OWGSd8AQU0h3/a61096c3bb0c44e06fc88457db6e2d52/ab5c7517-7624-4ad3-9130-a41ff07e07aa.jpg
1gCzqV7XmeUIVLPQUoQytL,1414,ATM NAKHCHIVAN ORDUBAD OBA M,ATM,"Naxçıvan, Ordubad rayonu, Sabirdizə kəndi ",38.945438,45.826706,,False,True,True,,,,,
2W7EiKvfn0C9OQvHVpdPmk,434,ATM NAKHCHIVAN ARAZ MARKET,ATM,"Naxçıvan, Heydər Əliyev prospekti",39.220879,45.407274,,False,True,True,,,,,
1B4yqEMqJ2WOVEdQWGWRpE,2365,ATM NAKHCHIVAN BOLMART MARKET ,ATM,Naxçıvan ş. Cahan gənclər şəhərciyi BOLMART  market,39.19482854418544,45.42999469590923,,True,True,True,,,,,https://images.ctfassets.net/rckhx7d9app2/3iN9YGaoZXimg7n9WydxSt/94bdd61f9dce38dceeebab46abb859cb/WhatsApp_Image_2024-02-14_at_12.00.26__1_.jpeg
7MlD0CLzaFre7IxEQpJKcO,904,ATM NAKHCHIVAN  MEGASTORE MARKET,ATM,"Naxçıvan, Megastore market",39.193341,45.409979,,False,True,True,,,,,https://images.ctfassets.net/rckhx7d9app2/GfA4Oqg1b3LPGbmarPKCa/4d340db10693054d8129c9f54706e01e/WhatsApp_Image_2024-02-14_at_10.31.11.jpeg
4vcggCmyxlRPFr69II7VwV,432,ATM NAKHCHIVAN QARACUG KANDI,ATM,Naxçıvan şəhər Qaraçuq kəndi (Sənaye Malları Mağazası),39.18805,45.378157,,False,True,False,,,,,
5O7rDpioQpHvkmfqdJrRa9,2570,ATM RIM SHR SHIRVAN BRANCH REC 2,ATM,Şirvan şəh M.Ə.Rəsulzadə küç 11 (ABB Şirvan filialı 24/7 sahə),39.95392090493362,48.94515047027646,,True,True,,,,,,
3Gv5HwKWnsVspmUR5lE8md,1186,ATM MASALLI BAZARSTORE,ATM,Masalli şəhəri M.Talışxanov küçəsi,39.0230945,48.6689756,,False,,,,,,,https://images.ctfassets.net/rckhx7d9app2/3edqEpXEMm3SaYaQhS44Ju/2795fe3416cd1fdba033123108a1684a/IMG-20231229-WA0010.jpg
7vo355fIhDZm6wKGDV8oiD,2567, BARDA ASAN XIDMET,ATM,"Bərdə rayonu, Heydər Əliyev prospekti 100 (Bərdə ASAN)",40.394167,47.124167,,True,False,,,,,,
65nnVs75CItSZ7qFX8mQwJ,213,ATM BARDA BOLMART MARKET,ATM,"Bərdə ""Bolmart"" market",40.38363546291704,47.122997048718645,,False,True,,,,,,
PUE9XGBaXStoXTY6l9jFT,2679,ATM BARDA BRANCH-2 NR,ATM,"Bərdə,Üzeyir Hacıbəyov  küç, (ABB-nin Bərdə filialı)",40.374042,47.123039,,True,True,,,,,,
7JSXIVrUVogd8O7rC1jcm0,2066,ATM BARDA BAZARSTORE,ATM,"Bərdə, Bakı küç., 2A (""Bazarstore"" market)",40.37627911197807,47.13457507792642,,False,True,,,,,,
1KAOaDJjvR8gI6r2LZ6rNr,2632,ATM ATM ISMAYILLI BRANCH 2,ATM,"İsmayıllı, M.F Axundov küçəsi 16 A  (ABB İsmayıllı filialı)",40.78526757529267,48.148672388723575,,True,True,,,,,,
2VHgDRqEgOJAcRuxeEQ3S0,2631,ATM ISMAYILLI BRANCH,ATM,"İsmayıllı , M.F Axundov küçəsi 16 A (ABB İsmayıllı filialı)",40.78526757529267,48.148672388723575,,True,True,True,,,,,https://images.ctfassets.net/rckhx7d9app2/5fLYUQ8TaV2ciizTiwIirg/27657e5858ed321bc51e99550f4cb708/WhatsApp_Image_2023-08-17_at_16.24.39.jpeg
70oFNYENKSYnJqIYfUtpQM,2287,ATM RIM YEVLAX KOB EVI RECYCLE,ATM,"Yevlax ş., H. Əliyev pr. KOB evi",40.5947946,47.1637953,,True,,,,,,,
WoufGKQ0dSukjetAtk99U,669,ATM RIM GEN GORANBOY MEGA MARKET,ATM,"Goranboy, H.Əliyev prospekti (Mega market)",40.60246085314616,46.779861380893564,,False,,,,,,,https://images.ctfassets.net/rckhx7d9app2/3uyUrfYUqzdKKCJPk5VrOr/fc38278a7eba36751cf06bcda39e25b9/IMG-20231206-WA0014.jpg
4KvkARKFZRX68fjoVH2XEk,2744,ATM RIM SHR SALYAN BRANCH 1,ATM,"Salyan şəhəri, H.Əliyev prospekti, 103, ( ABB Şirvan filialının Salyan şöbəsinin Yeni inzibati binası )",39.597123592056086,48.98534811349261,,True,True,,,,,,
504JQRDMhSJURQA5Qqxd4T,2722,ATM RIM GENCE TEXNOLOGIYA BR,ATM,"Gəncə, Ş.İ.Xətai pr. Ev 101 m 15 (ABB Texnologiya şöbəsi)",40.688570531303704,46.38513500918613,,True,True,,,,,,
FF0p99OFBJ8qE3KZNwn9f,2735,ATM CNV SUMGAIT BRANCH 5,ATM,"Sumqayıt, S.Vurğun küçəsi 112, 14-cü məhəllə (ABB Sumqayıt filialı)",40.59359631101007,49.67804053524083,,True,True,,,,,,
7vS5PdSyywrPhVg8hseCdB,2569,ATM RIM SHR HACIQABUL BRANCH,ATM,"Hacıqabul şəhəri, İsmət Qayıbov küç.32  (ABB Hacıqabul filialı)",40.031299470943054,48.93513107383715,,True,True,,,,,,
63wVi4Az9ZZwYZxRK1quHw,2693,ATM RIM QAZAX TOVUZ BRANCH 2,ATM,"Tovuz, M.Ə.Sabir küçəsi 49 (ABB Tovuz filialı)",40.99266228364854,45.617062286730686,,True,True,,,,,,
19OEnqiaIp3hR1i2IumFw3,2692,ATM RIM QAZAX TOVUZ BRANCH 1,ATM,"Tovuz, M.Ə.Sabir küçəsi 49 (ABB Tovuz filialı)",40.99266228364854,45.617062286730686,,True,True,,,,,,
58KULCADfbcYHCV7UhNgYL,2705,ATM CNV IBA HEAD OFFICE-3,ATM,"Bakı, Nəsimi rayonu, Nizami küçəsi, 67 (ABB, Baş İdarə) ",40.372165,49.836578,,True,True,,,,,,
4uUmny3DKkLcWbp6DCZWIW,2624,ATM CNV SABAIL BRANCH 2 WR,ATM,"Bakı, Səbail rayonu, L.Tolstoy 191 (ABB-nin Səbail filialı)",40.374027,49.842046,,True,True,,,,,,
4u6uxJYJ3XHhmF2Bwh2hlF,491,ATM RIM GEN TOVUZ GRAND MART,ATM,Tovuz rayonu Aşağı Öysüzlü kəndi Grand Market,40.986795,45.60434,,False,True,,,,,,
4P2B5fsqjSomAyJs3Vkpl,2550,ATM RIM GUB SIYEZEN BRANCH-2,ATM,Siyəzən ş Babək küçəs(ABB Siyəzən şöbəsi),41.075936,49.113667,,True,True,,,,,,
1dZu4u0F2mRVRHUSVnLZ7C,2635,ATM SHAMAKHI BRANCH WR,ATM,"Şamaxı, H.Əliyev 51 (ABB Şamaxı filialı)",40.632682,48.633041,,True,True,,,,,,
1DEtSgT2nPwT7QdzEwsdOV,890,ATM RIM YEV BEYLAGAN MANDARIN M.,ATM,"Beyləqan, Daşburun qəsəbəsi Mandarin market",39.630939,47.707214,,False,,,,,,,
1AQUmaBNJSQBU3UlekuwxX,168,ATM RIM YEV BEYLAGAN OSCAR YDM,ATM,"Bakı-Horadiz yolu, Daşburun dairəsi Oscar YDM",39.642694,47.690111,,False,,,,,,,
R2dciCscdtog3eG1wTYS7,925,ATM RIM YEV BEYLAQAN OBA,ATM,"Beyləqan şəhəri, S. İmrəliyev küç. (Oba market)",39.772857666015625,47.62112045288086,,False,,,,,,,
3UbkSQpRF4xxlzcmFCOedi,2248,ATM CNV NARIMANOV TAM STORE,ATM,"Bakı, Nərimanov rayonu, Həsənoğlu k. (Tam store)",40.39725330793839,49.86978217722192,,True,True,,,,,,
3wAn76W491FRHv8YUYCU5b,2501,ATM USD CNV LANDMARK ABB BRANCH GRG,ATM,"Bakı, Nəsimi rayonu, Nizami küçəsi, 96, (Landmark ABB BR)",40.375726,49.85086,,True,True,,,,,,
2H6MoAeWq1PxQoBSow4Poq,2290,ATM RIM XIR MEHDIABAD BIN GENCLER,ATM,"Abşeron rayonu, Mehdibad qəsəbəsi (Binəqədi Gənclər şəhərciyi 2)",40.486394224806986,49.838796949004184,,True,True,True,,,,,
7jVwo1ub0W5f823PpcjRKO,2391,ATM OBA MARKET I.ZULFUQAROV,ATM,"Bakı, Xətai rayonu, İ.Zülfüqarov küçəsi, 2942 A",40.369442966270874,49.95565743010633,,True,True,True,,,,,
5jjY5Kt4SB0sUWn2Bb3PoS,2375,ATM RIM GUB SHABRAN GAYALI M,ATM,"Şabran şəhəri, H.Əliyev pr. (Qayalı market)",41.20963869417298,48.9966102775522,,True,,,,,,,
lnJo3DLWDpSHsXVRT6vRN,2696,ATM RIM SHR LENKARAN BRANCH-2,ATM,"Lənkəran şəhəri, Ş.Axundov 16 (ABB Lənkəran filialı 24/7 sahə)",38.75390557439271,48.855307446332546,,True,True,,,,,,
R0m5EUpOeSmnd7XkwcC2I,2695,ATM RIM SHR LENKARAN BRANCH-1,ATM,"Lənkəran şəhəri, Ş.Axundov 16 (ABB Lənkəran filialı 24/7 sahə)",38.75390557439271,48.855307446332546,,True,True,,,,,,
7pvBkSg6InkIwXX6TWWovz,2664,ATM CNV H.CAVID ARAZ M WR,ATM,"Yasamal r-nu, H.Cavid pr. 17 A (Araz market Space TV yanı)",40.366844,49.816483,,True,True,,,,,,
tiW8V9iQDv4WtEitiY9IY,2731,ATM RIM XIR SUMGAIT BRANCH-1,ATM,"Sumqayıt, S.Vurğun küçəsi 112, 14-cü məhəllə (ABB Sumqayıt filialı)",40.59359631101007,49.67804053524083,,True,True,,,,,,
4ffXuJ9h9B3aImAPZsPRyK,2670,ATM RIM GEN SHEMKIR BRANCH 2 NR,ATM,"Şəmkir, S.Vurğun küçəsi 131 (ABB-nin Şəmkir filialı)",40.83009862611043,46.02020803764185,,True,True,,,,,,
1UAxU82XLgUtiJHrzgONMe,2597,ATM NAKHCHIVAN FILIAL 2,ATM,"Naxçıvan ş., H.Əliyev prospekti, ev 13A (ABB Naxçıvan filialı)",39.21261274583827,45.4079758807977,,True,True,,,,,,
7j6dJPFtP1CywpJpq9R22o,2706,ATM RIM GUB SHABRAN BRANCH,ATM,"Şabran, H.Əliyev pr. 101 (ABB-nin Şabran filialı)",41.2115994,48.998091,online,True,True,,,,,,
2TavQmcIngT08cQdw7VmwJ,2709,ATM BILASUVAR BRANCH NR,ATM,"Biləsuvar , H.Əliyev prospekti 45 (ABB-nin  Biləsuvar filialı)",39.4557586,48.5452351,,True,,,,,,,https://images.ctfassets.net/rckhx7d9app2/3tzYmCnl6vv3kej9Ha2JIW/d936ddac305990a1aefd21f98acf56b7/6acc01bb-292d-4312-a6d7-329bdcf90354.jpg
DjdReoaZAcOuxqVaoSPtB,2663,ATM CNV OBA M. H.ASLANOV M/S,ATM,"Bakı  ş, Xətai, M.Hadi küçəsi, 384-388 (Oba market)",40.372182,49.952682,,True,,,,,,,
4WOr8LsuSbveP1YzubE2iX,2657,"ATM CNV,FAVORIT MARKET EHMEDLI",ATM,"Bakı, Xətai rayonu, Gəncə pr. 29/42 (Araz market)",40.367433,49.959763,online,True,True,,,,,,
3xCjd9RGurcgFdczpiQTmX,2669,ATM RIM GEN SHEMKIR BRANCH 1,ATM,"Şəmkir, S.Vurğun küçəsi 131 (ABB-nin Şəmkir filialı)",40.83009862611042,46.02020803764185,,True,True,,,,,,
1yA6hD9Hn6YGts3J03rZaL,2525,ATM CNV SOCAR N14 BABEK PR.,ATM,Babək pr. yolun sol tərəfi O.Vəliyev (Socar petrolium N 14 ),40.392745,49.914431,,True,,,,,,,
3oma1qZFv8sg6JLNHFudSk,2526,ATM CNV SOCAR SBC DAIR SAG DN,ATM,"Bakı, Sabunçu rayonu, Sabunçu dairəsi (Socar YDM)",40.439081,49.939152,,True,True,True,24 HOURS,,,937,
2YLA7A4O2PNskIOGbzQcaw,2524,ATM CNV NASIMI ICRA H.,ATM,"Bakı, Nəsimi rayonu, S.Vurğun küçəsi 112 (Nəsimi rayonu İcra Hakimiyyəti)",40.393859446737,49.835175517010924,,True,True,,,,,,
7LmoFoIJtkVZU2IPWucOu7,2562,ATM CNV CHINAR PLAZA,ATM," Nərimanov rayonu, H.Əliyev pr.102",40.414386,49.903652,,True,True,True,,,,,
UpPq8JH6bET050dOS619h,2520,ATM CNV MARDAKAN 26 XASTAXANA ,ATM,"Bakı, Xəzər rayonu , Mərdəkan, R.Qasımov 6 (26 N-li Birləşmiş şəhər xəstəxanası)",40.49150557282489,50.15461603362685,,True,True,True,24 HOUR,,,,
6RBF1ehfxLoRT6PjxnseL5,2541,ATM RIM OGUZ SHEKI STORE,ATM,"Şəki, M.Ə.Rəsulzadə küçəsi (Şəki store)",41.197945433704106,47.17612441655825,,True,True,True,24 Hour,,,,
2gDSdBfGtZNBi1knt1g99i,2678,ATM BARDA BRANCH-1,ATM,"Bərdə,Üzeyir Hacıbəyov  küç, (ABB-nin Bərdə filialı)",40.37407471373152,47.123024988828945,,True,True,True,,,,,
14sH5SGLJ5C5jMwkBCfbM8,2685,ATM TARTAR BRANCH,ATM,"Tərtər, E.Hüseynov küçəsi 3 (ABB Tər-tər filialı)",40.3421718,46.9310682,,True,True,True,,,,,https://images.ctfassets.net/rckhx7d9app2/3124k7u7JuoTIVrkiZT8ng/186c8642554b5ee51928e309a78abb88/908773fc-af8f-4a1d-8b76-3f3d48276122.jpg
4gOxEsaeE5LzCYIJ5cUe6d,1317,ATM ZAQATALA SPAR MARKET,ATM,"Yuxari Tala kəndi. ""Tala"" pr-ti 25",41.62021272305278,46.650598376558676,,False,,,,,,,
4LmfSzoAIHcGtVFo33XrCF,2589,ATM CNV DEMIRCHI PLAZA,ATM,"Bakı, Xətai rayonu , Xocalı pr. 37 (Dəmirçi Plaza - Xətai m/s)",40.382882,49.871873,offline,True,True,,,,,,
4Y186982PeZifDMd4v7VIn,2309,ATM CNV ARAZ MARKET Y.GUNESHLI ,ATM," Suraxanı r., Yeni Günəşli qəs.",40.38362669876616,49.98257632582618,,True,True,True,,,,,https://images.ctfassets.net/rckhx7d9app2/5OUPFnN0xBPewGJJyW6e8/09920e8032605f8c4ab46bbf2c0347ab/2788dc50-e0f6-49a0-822a-bf7969c80fc2.jpg
6yOBfShNRM9BrWTpgDxmXM,2628,ATM CNV AHMADLI BRANCH GRG,ATM,"Bakı, Nizami rayonu, Məhəmməd Hadi küçəsi 155 (ABB-nin Əhmədli filialı)",40.38480385320155,49.954366082275754,,True,True,True,,,,,
4ogmt42mgKDPCTu9Ze7t7i,2518,"ATM NZM,GRANDMART MARKET",ATM,"Bakı, Nizami rayonu, Xalqlar dostluğu dairəsi (Grandmart)",40.398961,49.949841,,True,,,,,,,
4E9bkNQqHj908FUl5ro3rE,2733,ATM SUMGAYIT BRANCH 2,ATM,"Sumqayıt, S.Vurğun küçəsi 112, 14-cü məhəllə (ABB Sumqayıt filialı)",40.59359631101007,49.67804053524083,,False,,,,,,,
155r1cCWQFHL4280QNnmy0,2633,ATM GEBELE BRANCH-1,ATM,"Qəbələ , Qəbələ, İ.Qutqaşınlı küçəsi, 37",40.981172,47.848992,,True,True,,,,,,
4C53Z42BVjgy6EGvs5w8lM,2627,ATM CNV NIZAMI BRANCH 2 GRG,ATM,"Bakı, Nizami rayonu, T.Abbasov və Ə.Hacıyev küç. Kəsişməsi 2453 məhəllə ",40.419056,49.93358,,True,True,True,,,,,
50anurhm1ZuULM6LkKujsH,195,ATM RIM YEV YEVLAX NEPTUN S/M,ATM,"Yevlax şəh., Yeni Yevlax küçəsi, (Neptun supermarket)",40.613915,47.1460189,,False,True,,,,,,https://images.ctfassets.net/rckhx7d9app2/4nTRd2lEszBG2a8u7njDcL/96af990c09ab51bc7cb1909e84f09bba/0b86844a-45f6-46db-8d53-d5bfdd144f9a.jpg
659b3hnOmOJRuVxPBVChdU,652,ATM MINGECHEVIR BAZARSTORE,ATM,Mingəçevir şəhəri H.Əliyev pr kolxoz bazarı,40.76806114582113,47.05690431068197,,False,True,True,,,,,
3f3JtKyDASvk61WrkU54bV,644,ATM MINGECHEVIR 5+ MARKET NIZAMI,ATM,"Mingəçevir, Nizami küç. 13",40.76156509641441,47.05873221201858,,False,True,True,,,,,
sQOlPeqDByQLl8bJ9wL37,2196,ATM CNV  DSMF MARKAZI NR 2,ATM,"Bakı, Yasamal rayonu, H.B.Zərdabi küçəsi 80 (DSMF, Baş idarə)",40.394306,49.806691,,True,,,,,,,
3ZWuGb65Nr6pgWzaXm3ioP,648,ATM MINGECHEVIR TAMSTORE,ATM,"Mingəçevir, Ş.İ.Xətai küç. 7A",40.75713697267648,47.063543520749406,,False,True,True,,,,,
eEuJ1qFwkgkYYqjdG3bzr,58,ATM MINGECHEVIR GEDIROGLU MARKET,ATM,Mingəçevir şəhəri Heydər Əliyev prospekti bina 542,40.75714182966273,47.082702536845474,,False,True,True,,,,", ",
45Uq4FDkO2zbE3s9xrJkYO,2656,ATM SBC RISH QACHAQ NEBI ARAZ,ATM,"Bakı, Nizami rayonu, Əhmədli qəsəbəsi Qaçaq Nəbi küçəsi (Araz market)",40.389407964840146,49.9578823887028,online,,,,,,,,
6FmOE5ArPYFZMM7DeWelqo,649,ATM MINGECHEVIR ARAZ MARKET,ATM,Mingəçevir şəhəri Heydər Əliyev prospekti (Araz market),40.77129011496883,47.04113273348395,,False,True,True,,,,,
4prjcPE2bVhcLTW4eVguEO,2687,ATM RIM GUB GUBA BRANCH-2,ATM,"Quba r-nu, H.Əliyev prospekti, 219 A (ABB Quba filialı)",41.362896864278156,48.52212912027352,,True,True,,,,,,
1VuzxL52ROkHq8FcTrEygr,2686,ATM RIM GUB GUBA FILIALI,ATM,"Quba r-nu, H.Əliyev prospekti, 219 A(ABB-nın Quba filialı)",41.362896864278156,48.52212912027352,,True,True,,,,,,
38EtIs7uTEOsWXsii7G83m,2511,ATM MINGECHEVIR BRANCH 2,ATM,"Mingəçevir r., Heydər Əliyev pr.96 (ABB Mingəçevir filialı)",40.76656168282407,47.058380230286495,,True,True,True,,,,,
6BBYPtV9jjY72VJ0H4PRYN,2510,ATM MINGECHEVIR BRANCH 1 ,ATM,"Mingəçevir r., Heydər Əliyev pr.96 (ABB Mingəçevir filialı)",40.76656168282407,47.058380230286495,,True,True,True,,,,,
62JlfrblDCBDbqSIXKyWhB,1757,ATM CNV STP SUMGAYIT,ATM,"Sumqayıt, H.Z. Tağıyev qəsəbəsi (STP)",40.421799,49.902475,,False,,,,,,,
7lcOEGZpefsPjGsao5w50A,2747,ATM RIM SHR SAATLI BRANCH-1,ATM,"Saatlı, H.Əliyev pr. 178 (ABB Saatlı filialı)",39.93782867012833,48.36394102080927,online,True,True,,,,,,
7DolFtoFbOvS45uQso5fIQ,2748,ATM RIM SHR SAATLI BRANCH-2,ATM,"Saatlı, H.Əliyev pr. 178 (ABB Saatlı filialı)",39.93782867012833,48.36394102080927,,True,True,,,,,,
5zYn9odSgJnJ4pliO2JrDv,2734,ATM CNV SUMGAIT BRANCH 4,ATM,"Sumqayıt, S.Vurğun küçəsi 112, 14-cü məhəllə",40.59359631101007,49.67804053524083,,True,True,,,,,,
1GF3wcUrqjxvqXG935XG2h,2745,ATM CNV SPAR MARKET 3 MKR,ATM,"Bakı, Cavadxan küç., məh. 3005 (Spar market)",40.40681521433774,49.81293513798374,,True,True,,,,,,
1MrzIdRdKe719GFPKK61Yz,2671,ATM CNV INVESTISIYA HOLDING,ATM,"Bakı şəhəri, Səbail, Azərbaycan prospekti 6, AZ 1005 (İnvestisiya Xoldinqi)",40.37014,49.834495,online,True,True,,,,,,
1l8eEomTDkWCpCljJlPxJN,2689,ATM CNV ICERI SHEHER,ATM,"Bakı, Səbail rayonu, Sabir küç. İcəri şəhər",40.367878,49.835853,,True,,,,,,,
6N5nbvsyzzazWu2Ghrlz8W,2549,ATM RIM GUB SIYEZEN BRANCH-1,ATM,Siyəzən ş Babək küçəs(ABB Siyəzən filiali),41.075936,49.113667,,True,,,,,,,
kZSscotRcFNkGaLGBuaDg,2556,ATM RIM XIR BAKI BASH GOMRUK DN,ATM,"Bakı, Səbail r., Salyan şossesi 14-cü km (Baş Gömrük İdarəsi)",40.303852,49.770872,,True,,,,,,,
6sWYlk5g4KA3qULSqHIN7Q,2604,ATM TOVUZ ASAN XIDMET,ATM,"Tovuz rayon Bozalqanlı kənd ərazisi, Heydər Əliyev prospekti. ASAN Xidmət Mərkəzi.",40.98166918292317,45.65697800358248,,True,,,,,,,
634tsqlx6d7j7cMheEic4d,2263,ATM CNV H.ASLANOV M/S RECYCLE,ATM,Xətai r. Məhəmməd Hadi küç. (H.Aslanov m. çıxışı),40.37093,49.953829,,True,,,,,,,
43Sc74IfR4E9wEW3hecduv,286,ATM CNV SUM ARDNS AZERKIMYA IB,ATM,"Sumqayıt, (Azərkimya, zavod )",40.61885800632254,49.586052225107245,,False,True,,,,,,
1rc1nYUbnsyZUDFtvjyC94,154,ATM CNV SANGACHAL OBA MARKET,ATM,"Bakı ş. Qaradağ r., Sanqaçal qəsəbəsi, Sabir küçəsi (Oba market)",40.166751861572266,49.46155548095703,,False,,,,,,,https://images.ctfassets.net/rckhx7d9app2/4FK5vrQIHtpTsFXjvVCd9C/307fde0c39b50cf5b4657146a33573c3/7b60bf7e-492c-4d73-8cab-bfae2590bbeb.jpg
3sR4d5wttUTAHilWtX6Hyl,2732,ATM SUMGAIT BRANCH-1,ATM,"Sumqayıt, S.Vurğun küçəsi 112, 14-cü məhəllə",40.593644,49.678,,True,True,,,,,,
2yK3f3zDI7lyHEzZYITgOm,800,ATM NAX. CULFA RAYON BƏNƏNİYAR KƏND,ATM,Culfa rayon. Bənəniyar kəndi,39.15390877907594,45.6599277662912,,False,True,,,,,,
6EkclX2eSS7IF4YBFqJqFL,902,ATM RIM YEV ATM AGCABEDI TAMSTORE,ATM,Ağcabədi şəhəri  Ağcabədi mədəniyyət evinin önündə yerləşən (Tam store),40.048382828864526,47.45843447265701,online,False,True,,,,,,
3axaaecDSbHaYxDyHNy9GJ,2303,ATM RIM YEV ATM AGCABEDI BRANCH,ATM,Ağcabədi r. Ü. Hacıbəyli p-ti (ABB Ağcabədi filialı),40.05174789108378,47.44438540181161,,True,True,,,,,,
78VBFmYJkXJ2KEJsqv3i4t,2579,ATM CNV TAM STORE NEFTCHILER,ATM,"Bakı ş. Nizami r-nu, Qara Qarayev pr-ti, (""Tam store"" supermarket)",40.40610092311918,49.94658573708201,,True,True,,24/7,,,ATM,
dEZruyR7EKNNwp4sUzLSJ,2529,ATM RIM YEV MERKEZI XESTEXANA,ATM,Yevlax ray. C. Mustafayev 115 (Mərkəzi xəstəxana),40.597872,47.0,,True,True,,24/7,,,937,
3WfGUpixM3kjiheVJLhNJZ,159,"ATM NAKHCHIVAN, BABEK, H.ALIYEV",ATM,"Babək, H.Əliyev prospekti (Vergi İdarəsi) ",39.153612,45.442724,,False,True,,,,,,
Z6P0TKanUMoN9W3h1EbVi,2399,ATM CNV N.TUSI UROLOJI KLINIKA,ATM,"Bakı, Yasamal rayonu, H.B.Zərdabi prospekti 53 (Nəsrəddin Tusi adına klinika)",40.398045,49.805642,,True,True,,,,,,
5OIce1j7ZENfatP8bczHJ1,2381,ATM CNV ZIRA BRAVO,ATM,"Bakı, Xəzər rayonu Zirə qəsəbəsi  Cəlal Əliyev (Bravo Zirə)",40.382098563941206,50.287889928844976,online,True,True,,,,,,
wN89F7hnWzk64HRh33rS6,1033,ATM RIM OGUZ BAZARSTORE ZARAGAN,ATM,"Qəbələ, Zarağan kəndi ",40.92799818805365,47.80167101269516,,False,True,True,,,,,
5X9FeP3ML5DEpsaVPPlfoi,579,ATM RIM OGUZ QABABALA BAZARSTORE,ATM,"Qəbələ, İ. Qutqaşınlı k.",40.97711469065321,47.84560696190698,,True,True,True,,,,,
78GxQRplrmm8wzhq8Qawk4,2634,ATM GEBELE BRANCH-2 GRG,ATM,"Qəbələ , Qəbələ, İ.Qutqaşınlı küçəsi, 37",40.981172,47.848992,,True,True,True,,,,,
5DN44Xd5UMvlm3K70XeibU,2371,ATM CNV OBA MARKET YENI GUNESHLI ,ATM,"Suraxanı rayonu, Yeni Günəşli qəsəbəsi, ""AB"" y/m",40.385625188886664,49.97750093271392,,True,True,True,,,,,
6n745BDUjE5DfUOHRF51TF,2718,ATM XIRDALAN AAAF PARK BAZAZSTORE NR,ATM,"Xırdalan, H.Aliyev pr. AAAF Park (Bazarstore)",40.46128074338242,49.72752865436071,,True,True,,,,,,
5VCRlmsYoMCRtALrFfWjGT,2358,ATM CNV ECEMI TAMSTORE,ATM,"Bakı, Nəsimi rayon, Cavadxan küçəsi (Tam store - Yaşam residens)",40.41179607841979,49.812358004930594,,True,True,True,,,,,
6P8QrWOoZfGwFADMrvD1Ap,2407,ATM SHAMAKHI QAYALI MARKET,ATM,Şamaxı şəhərinin giriş hissəsinin sağ tərəfi “Qayalı” marketi,40.601502,48.685747,,True,True,,,,,,https://images.ctfassets.net/rckhx7d9app2/1fQs1g7ptbax2bmM3nYjMA/5e569f660cbfa793aabd16a836d62115/WhatsApp_Image_2023-08-25_at_08.12.10.jpeg
29yI8VBSviwP4cjiZJr7dv,1190,ATM RIM SHR YARDIMLI HALAL MAR,ATM,"Yadımlı r,Yardimli yolu H.Aliyev pr. kəsişməsi.",38.90725748651939,48.239932215420154,,False,True,True,,,,,
5b0tkkwsJXkqKnA4ODWKNi,2276,ATM RIM YEV GOYCHAY BRANCH,ATM,"Göyçay ş., (ABB Göyçay filialı)",40.649423,47.748033,,True,True,,,,,,
Hhstl7ThYiyKXtgP410kk,659,ATM CNV SUMGAYIT 2 MKR OBA MARKET,ATM,"Sumqayıt, 2-ci mkr, (Oba market)",40.557776732780546,49.69680379436086,,False,,,,,,,https://images.ctfassets.net/rckhx7d9app2/1jWbe2MhLI1MNz63WeZ0mJ/826ddddb000e53b2891e151a72e516e9/WhatsApp_Image_2023-08-18_at_10.51.58.jpeg
6i9z1v89n9sT9BE3ghAUs,917,ATM CNV NEPTUN KESHLA,ATM,"Bakı, Nərimanov rayonu, Keşlə qəsəbəsi (Neptun Super market)",40.415868986129276,49.86867514517272,,False,True,True,,,,,
2p86UzvYY5mo5aV3p1cxlX,1997,ATM CNV XATAI TAMSTORE,ATM,"Bakı, Xətai rayonu, 28 May küçəsi (TAM Store)",40.38051641422077,49.86255735170676,,False,True,,,,,,
4zKUFFe3AR0phrvC46spLu,483,ATM RIM XIR QOBU YOLU ARAZ,ATM,"Sumqayıt, Sumqayıt-Qobu yolu (YPİ Sumqayıt) Araz market",40.5658478432792,49.62710993544676,,False,True,True,,,,,
44ET9RhMFwH5YFxUYdYI1z,2720,ATM GENCE MERKEZ BRANCH NR,ATM,Gəncə şəhəri (ABB Gəncə mərkəz filialı),40.68062261393868,46.35815581226856,,True,True,,,,,,
6XlN1i5lmYxLWh94PnEoq2,1704,ATM RIM YEV KELBECER,ATM,Kəlbəcər rayonu (Market),40.11231758599875,46.04005736537025,,False,True,True,,,,,
7IGkoHmSy7k2zmYk6u42ZT,2188,ATM RIM GENCE OBA M. KARDIOLOJI,ATM,"Gəncə, Təbriz küç., 292 (Oba market (Kardioloji))",40.66232020663183,46.316486471004325,,False,,,,,,,https://images.ctfassets.net/rckhx7d9app2/012LVUFoEzjM8akJyRgMMW/4fccff699c60129c40b4e53dbcc26ca8/754__1_.jpeg
XoiCzE0pJCYvrzDkAG2bm,251,ATM YEV RIM XANKENDI ARAZ MARKET,ATM,Xahkəndi şəhəri (Araz market),39.82665103796585,46.76607068956481,,False,True,True,,,,,
2nSndcXuqC4aVYBUGhnUUp,2639,ATM RIM SHR CALILABAD BRANCH-1,ATM,"Cəlilabad, Azərbaycan küçəsi 103a ",39.21229458714326,48.50490932997586,,True,True,True,,,,,
5HlJtMmEuiWw2LQAtSyx3Z,2640,ATM RIM SHR CALILABAD BRANCH-2,ATM,"Cəlilabad, Azərbaycan küçəsi 103a",39.21229458714326,48.50490932997586,,True,True,True,,,,,
7xN0pNOjboP4EqqaSZjDJ6,2370,ATM MASALLI RAHAT MARKET,ATM,"Masallı,  H.Əliyev Prospekti (Rahat market)",39.026735,48.664782,,True,True,True,,,,,
7ibIEJqdyIimBpZKbn5lfD,2711,ATM RIM SHR MASALLI BRANCH,ATM,"Masallı şəh, Heydər Əliyev prospekti 34 (ABB Masallı filialı)",39.03509308183585,48.66903560495121,,True,True,True,,,,,
3SCkjfMX3iSgLPFZzcIgO7,2654,ATM CNV OLD TOWN ABB AGILE,ATM,"Baki, Yasamal rayonu, B.Safaroglu 123",40.37334732793052,49.83200171671246,,True,True,True,,,,,
3kBOx4GLlniixnavhLVwGz,466,ATM RIM OGUZ SHEKI RAHAT,ATM,"Şəki, Sabit Rəhimov küçəsi (Rahat market)",41.204403,47.167895,,False,True,,,,,,
76pxkjMru5ZKma3tAeOv5a,2629,ATM CNV ABB BAKIXANOV FILIALI-1,ATM,"Bakı ş. Sabunçu r., Bakıxanov qəs.  Muxtar Fətəliyev 70",40.41462258224968,49.967423817863015,,True,True,True,,,,,
5vJqxDuzygBNCXg9UczBF6,2623,ATM CNV SABAIL BRANCH 1 ,ATM,"Bakı, Səbail rayonu, L.Tolstoy 191 (ABB-nin Səbail filialı)",40.37411486583066,49.8420111312828,,True,True,,,,,,
kaGMnqGSyaBuGx7ejBBVD,2630,ATM CNV ABB BAKIXANOV FILIALI-2,ATM,"Bakı ş. Sabunçu r., Bakıxanov qəs.  Muxtar Fətəliyev 70",40.41462258224968,49.967423817863015,,True,True,True,,,,,
4C3FpAudAG3ObkBJzXU2MC,408,ATM RIM XIR GORADIL OBA,ATM,"Bakı, Abşeron r Gorədil qəsəbəsi Heydər Əliyev k",40.544439602294965,49.8349989936118,,False,True,True,,,,,
2vVQtKAqPyorBY6LQQAXyZ,1801,ATM RIM XIR BILACARI DSK OBA,ATM,"Bakı, Binəqədi rayonu, Biləcəri qəs., 10 may k. DSK yolu (Oba DSK)",40.44720751412071,49.798583524923295,,False,True,True,,,,,
98EbQVZCgJv0mCcfOj3sW,2190,ATM CNV HAVA LIMANI PARKING,ATM,"Bakı ş., Xəzər rayonu , Binə qəsəbəsi, (H.Əliyev adına Beynəlxalq Hava Limanı)",40.46077677924871,50.05199958612115,,True,True,,,,,,
1C9N3bGuMCBDCNfkQJbv4d,274,"ATM CCS, AMEA FIZIKA INSTITUTU",ATM,"Bakı, Yasamal rayonu, H.Cavid prospekti 33 (AMEA, Inzibati bina)",40.37364445254412,49.813815084655765,,False,,,,,,,
1jVeglL333Itw1ANeWJDUS,980,ATM CNV BIZIM MARKET GANCA PR,ATM,"Bakı, Xətai rayonu, Gəncə prospekti (Bizim market-""Panorama park"")",40.35379307772794,49.962314286914655,,False,True,True,,,,,
5mJ3NxiWvNE0SDriOjQAeJ,2681,ATM RIM YEV YEVLAX BRANCH-2 ,ATM,"Yevlax, H.Əliyev prospekti, 6 (ABB Yevlax filialı)",40.613104,47.147941,,True,,,,,,,
5hQn2Q1hdKnOuHQ1Y2M5r6,2680,ATM RIM YEV YEVLAX BRANCH-1 ,ATM,"Yevlax, H.Əliyev prospekti, 6 (ABB Yevlax filialı)",40.613104,47.147941,,True,True,,,,,,
27QzJTVMpbIdrqkxbmVuzb,2694,ATM YEV RISH XANKENDI GARABAG UNIVER,ATM,Xahkəndi şəhəri (Qarabağ universitetin tələbə yataqxanası),39.8230771867052,46.75277900829344,,True,True,True,,,,,
6tIZNpGyu0tosrWoCOOEgt,2697,ATM CNV BAZARSTORE ISTANBUL EV,ATM,"Bakı, Binəqədi rayonu, Əcəmi Naxçıvani küçəsi (Bazarstore İnstanbul evləri)",40.415980661811865,49.83878171002219,,True,True,True,,,,,
31VoLOvtdnRbFrPmPwARQL,2302,ATM RIM GEN AGSTAFA WELLHOME,ATM,"Ağstafa, H.Əliyev pr., 5A (Welhome)",41.115281882726855,45.449003795895266,,True,,,,,,,
